id_mutation,date_mutation,numero_disposition,nature_mutation,valeur_fonciere,adresse_numero,adresse_suffixe,adresse_nom_voie,adresse_code_voie,code_postal,code_commune,nom_commune,code_departement,ancien_code_commune,ancien_nom_commune,id_parcelle,ancien_id_parcelle,numero_volume,lot1_numero,lot1_surface_carrez,lot2_numero,lot2_surface_carrez,lot3_numero,lot3_surface_carrez,lot4_numero,lot4_surface_carrez,lot5_numero,lot5_surface_carrez,nombre_lots,code_type_local,type_local,surface_reelle_bati,nombre_pieces_principales,code_nature_culture,nature_culture,code_nature_culture_speciale,nature_culture_speciale,surface_terrain,longitude,latitude
2016-1,2016-01-08,000001,Vente,40000,77,,RUE TONY REVILLON,0560,01750,01370,Saint-Laurent-sur-Saône,01,,,013700000A0253,,,4,41.55,,,,,,,,,1,2,Appartement,50,2,,,,,,4.840606,46.304486
2016-2,2016-01-11,000001,Vente,1677,,,LES BROTTEAUX,B011,01160,01430,Varambon,01,,,014300000C1043,,,,,,,,,,,,,0,,,,,L,landes,,,1486,5.322464,46.041159
2016-2,2016-01-11,000001,Vente,1677,,,LES BROTTEAUX,B011,01160,01430,Varambon,01,,,014300000C1157,,,,,,,,,,,,,0,,,,,L,landes,,,3904,5.317038,46.033713
2016-2,2016-01-11,000001,Vente,1677,,,LES BROTTEAUX,B011,01160,01430,Varambon,01,,,014300000C1159,,,,,,,,,,,,,0,,,,,L,landes,,,1779,5.324177,46.041343
2016-2,2016-01-11,000001,Vente,1677,5246,,LES BROTTEAUX,B011,01160,01430,Varambon,01,,,014300000C1160,,,,,,,,,,,,,0,4,Local industriel. commercial ou assimilé,,0,S,sols,,,838,5.323666,46.040803
2016-2,2016-01-11,000001,Vente,1677,,,LES BROTTEAUX,B011,01160,01430,Varambon,01,,,014300000C1162,,,,,,,,,,,,,0,,,,,L,landes,,,1842,5.321966,46.039391
2016-2,2016-01-11,000001,Vente,1677,,,LES BROTTEAUX,B011,01160,01430,Varambon,01,,,014300000C1163,,,,,,,,,,,,,0,,,,,L,landes,,,419,5.322819,46.041144
2016-3,2016-01-08,000001,Vente,7915000,6,,AV AMEDEE MERCIER,0225,01000,01053,Bourg-en-Bresse,01,,,01053000BD0293,,,,,,,,,,,,,0,,,,,S,sols,,,228,5.234832,46.204876
2016-3,2016-01-08,000001,Vente,7915000,32,,BD ST NICOLAS,3430,01000,01053,Bourg-en-Bresse,01,,,01053000BD0294,,,,,,,,,,,,,0,4,Local industriel. commercial ou assimilé,3836,0,S,sols,,,1151,5.234834,46.204895
2016-3,2016-01-08,000001,Vente,7915000,6,,AV AMEDEE MERCIER,0225,01000,01053,Bourg-en-Bresse,01,,,01053000BD0300,,,,,,,,,,,,,0,,,,,S,sols,,,2,5.235418,46.205421
2016-3,2016-01-08,000001,Vente,7915000,32,,BD ST NICOLAS,3430,01000,01053,Bourg-en-Bresse,01,,,01053000BD0305,,,,,,,,,,,,,0,,,,,S,sols,,,229,5.234866,46.205173
2016-3,2016-01-08,000001,Vente,7915000,32,,BD ST NICOLAS,3430,01000,01053,Bourg-en-Bresse,01,,,01053000BD0307,,,,,,,,,,,,,0,,,,,S,sols,,,35,5.235003,46.205248
2016-3,2016-01-08,000001,Vente,7915000,32,,BD ST NICOLAS,3430,01000,01053,Bourg-en-Bresse,01,,,01053000BD0308,,,,,,,,,,,,,0,,,,,S,sols,,,23,5.235093,46.205228
2016-3,2016-01-08,000001,Vente,7915000,32,,BD ST NICOLAS,3430,01000,01053,Bourg-en-Bresse,01,,,01053000BD0313,,,,,,,,,,,,,0,,,,,S,sols,,,169,5.235138,46.205298
2016-4,2016-01-08,000001,Vente,90000,,,AU PELUS,B205,01560,01364,Saint-Jean-sur-Reyssouze,01,,,013640000D0848,,,,,,,,,,,,,0,,,,,T,terres,,,529,5.058103,46.386996
2016-4,2016-01-08,000001,Vente,90000,,,AU PELUS,B205,01560,01364,Saint-Jean-sur-Reyssouze,01,,,013640000D0849,,,,,,,,,,,,,0,,,,,T,terres,,,1031,5.058086,46.386935
2016-4,2016-01-08,000001,Vente,90000,5156,,PELUS,B203,01560,01364,Saint-Jean-sur-Reyssouze,01,,,013640000D0922,,,,,,,,,,,,,0,1,Maison,150,6,S,sols,,,1220,5.05902,46.386697
2016-5,2016-01-07,000001,Vente,100,,,PRE MICHEL,B272,01851,01232,Marboz,01,,,01232000WV0190,,,,,,,,,,,,,0,,,,,BT,taillis simples,,,2090,5.229807,46.302711
2016-5,2016-01-07,000001,Vente,100,,,PRE MICHEL,B272,01851,01232,Marboz,01,,,01232000WV0191,,,,,,,,,,,,,0,,,,,BT,taillis simples,,,5200,5.230613,46.302604
2016-6,2016-01-04,000001,Vente,203700,5149,,AU BOURG,B014,01190,01050,Boissey,01,,,010500000A1081,,,,,,,,,,,,,0,1,Maison,98,4,S,sols,,,500,4.996678,46.383446
2016-6,2016-01-04,000001,Vente,203700,5149,,AU BOURG,B014,01190,01050,Boissey,01,,,010500000A1081,,,,,,,,,,,,,0,1,Maison,98,4,AG,terrains d'agrément,,,750,4.996678,46.383446
2016-7,2016-01-09,000001,Vente,147000,205,,RUE DE LA VILLE,0031,01340,01024,Attignat,01,,,01024000AB0111,,,,,,,,,,,,,0,1,Maison,70,2,S,sols,,,464,5.161898,46.290693
2016-8,2016-01-12,000001,Vente,95000,,,PETIT MONTATIN,B022,01340,01130,Bresse Vallons,01,01130,Cras-sur-Reyssouze,011300000C0739,,,,,,,,,,,,,0,,,,,J,jardins,,,594,5.156355,46.309909
2016-8,2016-01-12,000001,Vente,95000,,,PETIT MONTATIN,B022,01340,01130,Bresse Vallons,01,01130,Cras-sur-Reyssouze,011300000C1143,,,,,,,,,,,,,0,,,,,P,prés,,,1724,5.156994,46.309985
2016-8,2016-01-12,000001,Vente,95000,580,,RTE DU PETIT MONTATIN,0295,01340,01130,Bresse Vallons,01,01130,Cras-sur-Reyssouze,011300000C1146,,,,,,,,,,,,,0,1,Maison,91,2,S,sols,,,921,5.156324,46.30977
2016-9,2016-01-15,000001,Vente,273150,65,,LOT PRES MICHEL,A014,01340,01163,Foissiat,01,,,01163000WH0880,,,,,,,,,,,,,0,1,Maison,113,4,S,sols,,,1125,5.181398,46.370973
2016-10,2016-01-15,000001,Vente,75000,5083,,LA VILLE,B135,01370,01241,Meillonnas,01,,,012410000F0121,,,,,,,,,,,,,0,1,Maison,120,3,S,sols,,,50,5.351734,46.244752
2016-11,2016-01-07,000002,Vente,40000,,,LE MOLLARD,B076,01340,01236,Marsonnas,01,,,01236000AI0614,,,,,,,,,,,,,0,,,,,AB,terrains a bâtir,,,1514,5.076031,46.344867
2016-11,2016-01-07,000002,Vente,40000,,,LE MOLLARD,B076,01340,01236,Marsonnas,01,,,01236000AI0620,,,,,,,,,,,,,0,,,,,S,sols,,,162,5.076001,46.344577
2016-11,2016-01-07,000002,Vente,40000,,,LE MOLLARD,B076,01340,01236,Marsonnas,01,,,01236000AI0634,,,,,,,,,,,,,0,,,,,P,prés,,,452,5.076006,46.344444
2016-12,2016-01-08,000001,Vente,1400,,,LA COCHONNIERE,B125,01340,01163,Foissiat,01,,,01163000WI0113,,,,,,,,,,,,,0,,,,,T,terres,,,3744,5.153363,46.363409
2016-12,2016-01-08,000001,Vente,1400,,,LA COCHONNIERE,B125,01340,01163,Foissiat,01,,,01163000WI0114,,,,,,,,,,,,,0,,,,,L,landes,,,21,5.152575,46.363723
2016-12,2016-01-08,000001,Vente,1400,,,LA COCHONNIERE,B125,01340,01163,Foissiat,01,,,01163000WI0115,,,,,,,,,,,,,0,,,,,L,landes,,,47,5.152658,46.363901
2016-12,2016-01-08,000001,Vente,1400,,,LA COCHONNIERE,B125,01340,01163,Foissiat,01,,,01163000WI0116,,,,,,,,,,,,,0,,,,,T,terres,,,3171,5.153472,46.363626
2016-13,2016-01-11,000001,Vente,238500,5791,,CHEM DE LA FONTAINE,0225,01160,01273,Neuville-sur-Ain,01,,,012730000E1933,,,,,,,,,,,,,0,1,Maison,126,4,S,sols,,,1003,5.36928,46.064101
2016-14,2016-01-04,000001,Vente,45000,,,RUE MAL DE LATTRE DE TASSIGNY,0300,01190,01305,Pont-de-Vaux,01,,,01305000AK0563,,,1,,2,,3,,,,,,3,4,Local industriel. commercial ou assimilé,68,0,,,,,,4.937237,46.431935
2016-15,2016-01-15,000001,Vente,1,,,RUE DES VAREYS,0213,01440,01451,Viriat,01,,,01451000BN0275,,,,,,,,,,,,,0,,,,,AB,terrains a bâtir,,,135,5.205063,46.221024
2016-16,2016-01-09,000001,Vente,29100,,,LES GOUILLETTES,B068,01570,01231,Manziat,01,,,01231000AE0131,,,,,,,,,,,,,0,,,,,BT,taillis simples,,,970,4.917953,46.361841
2016-17,2016-01-05,000001,Vente,9637,,,PRE COCHET,B117,01250,01422,Tossiat,01,,,01422000ZB0055,,,,,,,,,,,,,0,,,,,P,prés,,,8380,5.28566,46.141884
2016-18,2016-01-15,000001,Vente,58000,,,MABERTIN,B057,01290,01123,Cormoranche-sur-Saône,01,,,011230000C1061,,,,,,,,,,,,,0,,,,,AB,terrains a bâtir,,,424,4.837603,46.23893
2016-19,2016-01-08,000001,Vente,2680,,,EN LES PLATIERES,B180,01190,01094,Chavannes-sur-Reyssouze,01,,,010940000B0058,,,,,,,,,,,,,0,,,,,T,terres,,,3222,5.012104,46.441756
2016-19,2016-01-08,000001,Vente,2680,,,L ACQUISE,B001,01190,01094,Chavannes-sur-Reyssouze,01,,,010940000B0134,,,,,,,,,,,,,0,,,,,T,terres,,,10176,5.00874,46.437375
2016-20,2016-01-08,000002,Vente,3817,,,EN TRAVERSANT,B257,01190,01094,Chavannes-sur-Reyssouze,01,,,010940000B0737,,,,,,,,,,,,,0,,,,,T,terres,,,10119,4.997146,46.444172
2016-20,2016-01-08,000002,Vente,3817,,,EN TRAVERSANT,B257,01190,01094,Chavannes-sur-Reyssouze,01,,,010940000B0738,,,,,,,,,,,,,0,,,,,T,terres,,,6124,4.996917,46.443664
2016-21,2016-01-12,000001,Vente,240000,5253,,LE BOURG,B002,01540,01291,Perrex,01,,,012910000A0628,,,,,,,,,,,,,0,1,Maison,126,5,S,sols,,,1912,4.979027,46.245895
2016-22,2016-01-12,000001,Vente,138000,,,TERNANT CENTRE,B277,01570,01159,Feillens,01,,,01159000AK0444,,,,,,,,,,,,,0,,,,,S,sols,,,59,4.894476,46.328162
2016-22,2016-01-12,000001,Vente,138000,745,C,RTE DE TERNANT,0440,01570,01159,Feillens,01,,,01159000AK0447,,,,,,,,,,,,,0,1,Maison,103,4,S,sols,,,148,4.894313,46.328233
2016-23,2016-01-07,000001,Vente,200600,9,,IMP DES ROSEAUX,0188,01310,01301,Polliat,01,,,01301000AE0167,,,,,,,,,,,,,0,1,Maison,94,5,S,sols,,,598,5.131844,46.246581
2016-24,2016-01-19,000001,Vente,6500,,,LA FELIE,B037,01380,01355,Saint-Genis-sur-Menthon,01,,,01355000ZD0071,,,,,,,,,,,,,0,,,,,BS,taillis sous futaie,,,19727,5.014368,46.2809
2016-25,2016-01-13,000001,Vente,100000,23,,GR GRANDE RUE,0055,01340,01266,Montrevel-en-Bresse,01,,,01266000AB0100,,,1,79.12,,,,,,,,,1,2,Appartement,206,0,,,,,,5.128291,46.337173
2016-26,2016-01-15,000001,Vente,12489.75,,,PETIT GRISARD,B046,01340,01130,Bresse Vallons,01,01154,Étrez,01130154ZA0002,01154000ZA0002,,,,,,,,,,,,0,,,,,T,terres,,,4480,5.160139,46.34455
2016-26,2016-01-15,000001,Vente,12489.75,,,CORCELLE BASSE,B135,01340,01163,Foissiat,01,,,01163000WI0219,,,,,,,,,,,,,0,,,,,T,terres,,,12100,5.160142,46.345434
2016-26,2016-01-15,000001,Vente,12489.75,,,LE CHENEVIER,B115,01340,01163,Foissiat,01,,,01163000WI0227,,,,,,,,,,,,,0,,,,,P,prés,,,42511,5.153482,46.346649
2016-27,2016-01-20,000001,Vente,1150,,,LES BUGNES,B060,01340,01163,Foissiat,01,,,01163000WH0428,,,,,,,,,,,,,0,,,,,BS,taillis sous futaie,,,12268,5.208792,46.356445
2016-28,2016-01-15,000001,Vente,3500,,,PRE BRIAUX,B227,01560,01364,Saint-Jean-sur-Reyssouze,01,,,013640000B0431,,,,,,,,,,,,,0,,,,,BP,peupleraies,,,4434,5.072281,46.38793
2016-28,2016-01-15,000001,Vente,3500,,,PRE BRIAUX,B227,01560,01364,Saint-Jean-sur-Reyssouze,01,,,013640000B0432,,,,,,,,,,,,,0,,,,,BP,peupleraies,,,10441,5.072725,46.388585
2016-28,2016-01-15,000001,Vente,3500,,,LES RUTETS,B295,01560,01364,Saint-Jean-sur-Reyssouze,01,,,013640000B0441,,,,,,,,,,,,,0,,,,,BP,peupleraies,,,4460,5.071311,46.387843
2016-28,2016-01-15,000001,Vente,3500,,,GRAND DERONTET,B138,01560,01364,Saint-Jean-sur-Reyssouze,01,,,013640000B0451,,,,,,,,,,,,,0,,,,,BP,peupleraies,,,400,5.070723,46.387718
2016-29,2016-01-15,000001,Vente,60268,,,DOUCET,B017,01340,01266,Montrevel-en-Bresse,01,,,01266000AA0044,,,,,,,,,,,,,0,,,,,AG,terrains d'agrément,,,931,5.122986,46.33869
2016-29,2016-01-15,000001,Vente,60268,,,DOUCET,B017,01340,01266,Montrevel-en-Bresse,01,,,01266000AA0044,,,,,,,,,,,,,0,,,,,S,sols,,,228,5.122986,46.33869
2016-30,2016-01-15,000001,Vente,120000,23,,BD DE L HIPPODROME,1890,01000,01053,Bourg-en-Bresse,01,,,01053000AV0044,,,205,,233,86.29,252,,,,,,3,2,Appartement,86,5,,,,,,5.23862,46.192298
2016-30,2016-01-15,000001,Vente,120000,23,,BD DE L HIPPODROME,1890,01000,01053,Bourg-en-Bresse,01,,,01053000AV0044,,,222,,,,,,,,,,1,3,Dépendance,,0,,,,,,5.23862,46.192298
2016-31,2016-01-08,000001,Vente,879,,,EN MARVIREY,B171,01380,01025,Bâgé-Dommartin,01,01025,Bâgé-la-Ville,010250000E0807,,,,,,,,,,,,,0,,,,,T,terres,,,2930,4.963095,46.320876
2016-32,2016-01-07,000001,Vente,90000,,,LE COLOMBIER,B113,01160,01374,Saint-Martin-du-Mont,01,,,013740000B2384,,,,,,,,,,,,,0,,,,,BT,taillis simples,,,2717,5.329233,46.10973
2016-32,2016-01-07,000001,Vente,90000,960,,RTE DU COLOMBIER,0084,01160,01374,Saint-Martin-du-Mont,01,,,013740000B2386,,,,,,,,,,,,,0,1,Maison,98,3,S,sols,,,249,5.328885,46.109178
2016-33,2016-01-11,000001,Vente,74000,,,LA VARASSE,B319,01560,01364,Saint-Jean-sur-Reyssouze,01,,,013640000A1122,,,,,,,,,,,,,0,,,,,P,prés,,,4153,5.062204,46.409389
2016-34,2016-01-18,000001,Vente,145000,,,LES NIEVRES,B062,01340,01196,Jayat,01,,,011960000D0451,,,,,,,,,,,,,0,,,,,T,terres,,,2983,5.112899,46.393802
2016-34,2016-01-18,000001,Vente,145000,,,LES NIEVRES,B062,01340,01196,Jayat,01,,,011960000D0451,,,,,,,,,,,,,0,,,,,S,sols,,,606,5.112899,46.393802
2016-34,2016-01-18,000001,Vente,145000,130,,CHE DU MOULIN NEUF,0150,01340,01196,Jayat,01,,,011960000D0452,,,,,,,,,,,,,0,1,Maison,94,5,S,sols,,,1040,5.113211,46.393529
2016-35,2016-01-05,000001,Vente,197000,117,,ALL DES VERNETTES,0254,01440,01451,Viriat,01,,,01451000ZA0226,,,,,,,,,,,,,0,,,,,S,sols,,,7287,5.179983,46.249986
2016-36,2016-01-04,000001,Vente,150000,124,B,ALL DES AVIATEURS,0324,01000,01053,Bourg-en-Bresse,01,,,01053000AT0167,,,30,86.69,,,,,,,,,1,1,Maison,89,4,,,,,,5.236803,46.18981
2016-37,2016-01-05,000001,Vente,71000,,,PILLEBOIS,B026,01340,01229,Malafretaz,01,,,012290000B1260,,,,,,,,,,,,,0,,,,,AB,terrains a bâtir,,,699,5.1381,46.324793
2016-38,2016-01-06,000001,Vente,66500,2,,RUE ARISTIDE BRIAND,0285,01000,01053,Bourg-en-Bresse,01,,,01053000AC0248,,,105,,181,43.74,,,,,,,2,2,Appartement,44,2,,,,,,5.224759,46.210275
2016-38,2016-01-06,000001,Vente,66500,2,,RUE ARISTIDE BRIAND,0285,01000,01053,Bourg-en-Bresse,01,,,01053000AC0248,,,168,,178,,,,,,,,2,2,Appartement,64,3,,,,,,5.224759,46.210275
2016-39,2016-01-14,000001,Vente,109500,26,,RUE DE MONTHOLON,2730,01000,01053,Bourg-en-Bresse,01,,,01053000AI0298,,,122,19.53,,,,,,,,,1,2,Appartement,20,1,,,,,,5.209578,46.198844
2016-39,2016-01-14,000001,Vente,109500,26,,RUE DE MONTHOLON,2730,01000,01053,Bourg-en-Bresse,01,,,01053000AI0298,,,216,19.37,,,,,,,,,1,2,Appartement,20,1,,,,,,5.209578,46.198844
2016-39,2016-01-14,000001,Vente,109500,26,,RUE DE MONTHOLON,2730,01000,01053,Bourg-en-Bresse,01,,,01053000AI0298,,,121,19.38,,,,,,,,,1,2,Appartement,20,1,,,,,,5.209578,46.198844
2016-40,2016-01-06,000001,Vente,132660,80,D,AV DE JASSERON,1950,01000,01053,Bourg-en-Bresse,01,,,01053000CD0317,,,,,,,,,,,,,0,1,Maison,70,3,S,sols,,,60,5.256775,46.211383
2016-40,2016-01-06,000001,Vente,132660,80,,AV DE JASSERON,1950,01000,01053,Bourg-en-Bresse,01,,,01053000CD0336,,,,,,,,,,,,,0,,,,,S,sols,,,18,5.257006,46.211394
2016-40,2016-01-06,000001,Vente,132660,80,D,AV DE JASSERON,1950,01000,01053,Bourg-en-Bresse,01,,,01053000CD0338,,,,,,,,,,,,,0,,,,,S,sols,,,31,5.256822,46.21137
2016-41,2016-01-04,000001,Vente,140000,9,,RUE CREVE COEUR,1030,01000,01053,Bourg-en-Bresse,01,,,01053000AC0478,,,14,,,,,,,,,,1,3,Dépendance,,0,,,,,,5.223368,46.208953
2016-41,2016-01-04,000001,Vente,140000,9,B,RUE CREVE COEUR,1030,01000,01053,Bourg-en-Bresse,01,,,01053000AC0478,,,82,105.72,,,,,,,,,1,2,Appartement,114,4,,,,,,5.223368,46.208953
2016-42,2016-01-05,000001,Vente,94800,17,,RUE JULIETTE RECAMIER,2150,01000,01053,Bourg-en-Bresse,01,,,01053000BL0341,,,13,,,,,,,,,,1,3,Dépendance,,0,,,,,,5.238292,46.213731
2016-42,2016-01-05,000001,Vente,94800,17,,RUE JULIETTE RECAMIER,2150,01000,01053,Bourg-en-Bresse,01,,,01053000BL0341,,,6,79.42,,,,,,,,,1,2,Appartement,79,4,,,,,,5.238292,46.213731
2016-43,2016-01-19,000001,Vente,123500,,,LA VILLE,B320,01160,01273,Neuville-sur-Ain,01,,,01273000AB0064,,,,,,,,,,,,,0,,,,,J,jardins,,,105,5.372338,46.082416
2016-43,2016-01-19,000001,Vente,123500,5293,,LA VILLE,B320,01160,01273,Neuville-sur-Ain,01,,,01273000AB0067,,,,,,,,,,,,,0,1,Maison,65,2,S,sols,,,36,5.372164,46.082623
2016-43,2016-01-19,000001,Vente,123500,,,LA VILLE,B320,01160,01273,Neuville-sur-Ain,01,,,01273000AB0069,,,,,,,,,,,,,0,,,,,S,sols,,,33,5.372104,46.082577
2016-43,2016-01-19,000001,Vente,123500,,,LA VILLE,B320,01160,01273,Neuville-sur-Ain,01,,,01273000AB0070,,,,,,,,,,,,,0,,,,,S,sols,,,31,5.372138,46.082537
2016-44,2016-01-12,000001,Vente,800000,,,LE PUTET NORD,B313,01750,01320,Replonges,01,,,013200000D2774,,,,,,,,,,,,,0,,,,,S,sols,,,192,,
2016-44,2016-01-12,000001,Vente,800000,5292,,LE PUTET NORD,B313,01750,01320,Replonges,01,,,013200000D2926,,,,,,,,,,,,,0,4,Local industriel. commercial ou assimilé,403,0,S,sols,,,3196,,
2016-44,2016-01-12,000001,Vente,800000,5292,,LE PUTET NORD,B313,01750,01320,Replonges,01,,,013200000D2926,,,,,,,,,,,,,0,1,Maison,59,2,S,sols,,,3196,,
2016-45,2016-01-07,000001,Vente,85000,,,LA NEUVE OUEST,B283,01440,01451,Viriat,01,,,01451000BL0340,,,,,,,,,,,,,0,,,,,AB,terrains a bâtir,,,655,5.211599,46.21292
2016-46,2016-01-19,000001,Vente,450,,,CHAMP BARON,B004,01250,01106,Cize,01,,,011060000B0052,,,,,,,,,,,,,0,,,,,L,landes,,,421,5.452166,46.204699
2016-47,2016-01-04,000001,Vente,160100,841,,RTE DE CURFIN,0001,01250,01447,Villereversure,01,,,014470000B0584,,,,,,,,,,,,,0,1,Maison,103,4,P,prés,,,1230,5.406913,46.199913
2016-47,2016-01-04,000001,Vente,160100,841,,RTE DE CURFIN,0001,01250,01447,Villereversure,01,,,014470000B0584,,,,,,,,,,,,,0,1,Maison,103,4,S,sols,,,1018,5.406913,46.199913
2016-47,2016-01-04,000001,Vente,160100,,,LES FOURCHES,B103,01250,01447,Villereversure,01,,,014470000B1041,,,,,,,,,,,,,0,,,,,P,prés,,,371,5.407313,46.200217
2016-48,2016-01-22,000001,Vente,200000,5235,,LA PONCETTE,B093,01250,01072,Ceyzériat,01,,,01072000AH0087,,,,,,,,,,,,,0,1,Maison,137,7,S,sols,,,705,5.330384,46.183836
2016-49,2016-01-07,000002,Vente,700,,,LUISANDRE,B020,01960,01289,Péronnas,01,,,01289000ZB0072,,,,,,,,,,,,,0,,,,,P,prés,,,1448,5.193029,46.179483
2016-50,2016-01-21,000001,Vente,373000,40,,AV DU MAIL,2430,01000,01053,Bourg-en-Bresse,01,,,01053000AH0350,,,,,,,,,,,,,0,2,Appartement,65,3,S,sols,,,217,5.21361,46.202411
2016-50,2016-01-21,000001,Vente,373000,40,,AV DU MAIL,2430,01000,01053,Bourg-en-Bresse,01,,,01053000AH0350,,,,,,,,,,,,,0,2,Appartement,45,1,S,sols,,,217,5.21361,46.202411
2016-50,2016-01-21,000001,Vente,373000,40,,AV DU MAIL,2430,01000,01053,Bourg-en-Bresse,01,,,01053000AH0350,,,,,,,,,,,,,0,2,Appartement,68,3,S,sols,,,217,5.21361,46.202411
2016-50,2016-01-21,000001,Vente,373000,40,,AV DU MAIL,2430,01000,01053,Bourg-en-Bresse,01,,,01053000AH0350,,,,,,,,,,,,,0,4,Local industriel. commercial ou assimilé,30,0,S,sols,,,217,5.21361,46.202411
2016-50,2016-01-21,000001,Vente,373000,40,,AV DU MAIL,2430,01000,01053,Bourg-en-Bresse,01,,,01053000AH0350,,,,,,,,,,,,,0,4,Local industriel. commercial ou assimilé,100,0,S,sols,,,217,5.21361,46.202411
2016-50,2016-01-21,000001,Vente,373000,40,,AV DU MAIL,2430,01000,01053,Bourg-en-Bresse,01,,,01053000AH0350,,,,,,,,,,,,,0,2,Appartement,85,4,S,sols,,,217,5.21361,46.202411
2016-51,2016-01-14,000001,Vente,66500,5452,,VILLAGE,B103,01240,01211,Lent,01,,,012110000A1166,,,,,,,,,,,,,0,1,Maison,56,2,S,sols,,,56,5.19549,46.119477
2016-52,2016-01-22,000001,Vente,3362,,,GRAND COMMUNAL,B041,01340,01196,Jayat,01,,,011960000B0277,,,,,,,,,,,,,0,,,,,P,prés,,,4629,5.133311,46.369109
2016-52,2016-01-22,000001,Vente,3362,,,GRAND COMMUNAL,B041,01340,01196,Jayat,01,,,011960000B0279,,,,,,,,,,,,,0,,,,,P,prés,,,5175,5.136267,46.369398
2016-52,2016-01-22,000001,Vente,3362,,,GRAND COMMUNAL,B041,01340,01196,Jayat,01,,,011960000B0295,,,,,,,,,,,,,0,,,,,P,prés,,,5675,5.135439,46.367285
2016-52,2016-01-22,000001,Vente,3362,,,LA PRAIRIE,B074,01340,01196,Jayat,01,,,01196000ZA0023,,,,,,,,,,,,,0,,,,,P,prés,,,1330,5.136412,46.369702
2016-53,2016-01-22,000001,Vente,1402,,,LA PRAIRIE,B074,01340,01196,Jayat,01,,,01196000ZA0035,,,,,,,,,,,,,0,,,,,P,prés,,,7010,5.1324,46.371191
2016-54,2016-01-22,000001,Vente,3392,,,BOIS DE LA DAME,B006,01340,01196,Jayat,01,,,011960000C0662,,,,,,,,,,,,,0,,,,,T,terres,,,714,5.112546,46.362611
2016-54,2016-01-22,000001,Vente,3392,,,BOIS DE LA DAME,B006,01340,01196,Jayat,01,,,011960000C0664,,,,,,,,,,,,,0,,,,,P,prés,,,970,5.112223,46.362457
2016-54,2016-01-22,000001,Vente,3392,,,BOIS DE LA DAME,B006,01340,01196,Jayat,01,,,011960000C0665,,,,,,,,,,,,,0,,,,,T,terres,,,1600,5.111817,46.362208
2016-54,2016-01-22,000001,Vente,3392,,,BOIS DE LA DAME,B006,01340,01196,Jayat,01,,,011960000C0681,,,,,,,,,,,,,0,,,,,P,prés,,,1511,5.111927,46.362035
2016-54,2016-01-22,000001,Vente,3392,,,BOIS DE LA DAME,B006,01340,01196,Jayat,01,,,011960000C0682,,,,,,,,,,,,,0,,,,,T,terres,,,2308,5.112683,46.362035
2016-54,2016-01-22,000001,Vente,3392,,,BOIS DE LA DAME,B006,01340,01196,Jayat,01,,,011960000C0683,,,,,,,,,,,,,0,,,,,T,terres,,,1060,5.112714,46.361753
2016-54,2016-01-22,000001,Vente,3392,,,BOIS DE LA DAME,B006,01340,01196,Jayat,01,,,011960000C0688,,,,,,,,,,,,,0,,,,,T,terres,,,1930,5.111628,46.360987
2016-54,2016-01-22,000001,Vente,3392,,,LES BROUILLES,B009,01340,01196,Jayat,01,,,011960000C0895,,,,,,,,,,,,,0,,,,,T,terres,,,2565,5.115376,46.36757
2016-54,2016-01-22,000001,Vente,3392,,,LES BROUILLES,B009,01340,01196,Jayat,01,,,011960000C0896,,,,,,,,,,,,,0,,,,,T,terres,,,1800,5.115395,46.36769
2016-54,2016-01-22,000001,Vente,3392,,,TERRES DU BOIS,B092,01340,01196,Jayat,01,,,011960000C0971,,,,,,,,,,,,,0,,,,,P,prés,,,2500,5.111432,46.365446
2016-54,2016-01-22,000001,Vente,3392,,,TERRES DU BOIS,B092,01340,01196,Jayat,01,,,011960000C0972,,,,,,,,,,,,,0,,,,,T,terres,,,420,5.110522,46.365299
2016-55,2016-01-19,000001,Vente,65000,12,,RUE NEUVE,0420,01750,01370,Saint-Laurent-sur-Saône,01,,,013700000A0751,,,8,55.76,,,,,,,,,1,2,Appartement,55,2,,,,,,4.839866,46.304881
2016-56,2016-01-15,000001,Vente,74000,5816,,LA TEPPENNERIE,B063,01190,01305,Pont-de-Vaux,01,,,013050000B0287,,,,,,,,,,,,,0,1,Maison,89,4,S,sols,,,1545,4.949215,46.429308
2016-57,2016-01-11,000001,Vente,205000,,,PETITES BELLES VAVRES SUD,B326,01340,01163,Foissiat,01,,,01163000WE0034,,,,,,,,,,,,,0,,,,,P,prés,,,26204,5.194897,46.37496
2016-57,2016-01-11,000001,Vente,205000,,,LES PLANASES,B335,01340,01163,Foissiat,01,,,01163000WE0123,,,,,,,,,,,,,0,,,,,P,prés,,,9700,5.192451,46.374769
2016-57,2016-01-11,000001,Vente,205000,930,,RTE DES CLERMONTS,0295,01340,01163,Foissiat,01,,,01163000WE0187,,,,,,,,,,,,,0,1,Maison,130,4,S,sols,,,2640,5.195865,46.374436
2016-57,2016-01-11,000001,Vente,205000,,,PETITES BELLES VAVRES SUD,B326,01340,01163,Foissiat,01,,,01163000WE0188,,,,,,,,,,,,,0,,,,,T,terres,,,2339,5.196406,46.374259
2016-58,2016-01-13,000001,Vente,169500,80,,ALL DES CHARMILLES,0099,01000,01344,Saint-Denis-lès-Bourg,01,,,01344000AN0118,,,,,,,,,,,,,0,1,Maison,103,5,S,sols,,,768,5.195225,46.196778
2016-58,2016-01-13,000001,Vente,169500,6166,,LA GRANGE MAMAN,B015,01000,01344,Saint-Denis-lès-Bourg,01,,,01344000AN0119,,,,,,,,,,,,,0,4,Local industriel. commercial ou assimilé,,0,AG,terrains d'agrément,,,879,5.195041,46.196481
2016-58,2016-01-13,000001,Vente,169500,,,RUE DES LAURIERS,0211,01000,01344,Saint-Denis-lès-Bourg,01,,,01344000AN0141,,,,,,,,,,,,,0,,,,,AG,terrains d'agrément,,,463,5.19378,46.195261
2016-59,2016-01-14,000002,Vente,22695,,,LE VILLAGE,B156,01250,01195,Jasseron,01,,,01195000AD0692,,,,,,,,,,,,,0,,,,,T,terres,,,1518,5.323983,46.212721
2016-60,2016-01-14,000001,Vente,1560,,,LE VILLAGE,B156,01250,01195,Jasseron,01,,,01195000AD0693,,,,,,,,,,,,,0,,,,,T,terres,,,99,5.323939,46.21301
2016-61,2016-01-15,000001,Vente,200500,,,LES PLATIERES,B081,01290,01123,Cormoranche-sur-Saône,01,,,011230000A0963,,,,,,,,,,,,,0,,,,,AB,terrains a bâtir,,,143,4.832029,46.246062
2016-62,2016-01-15,000001,Vente,78114,12,,RUE DE LA CITADELLE,0910,01000,01053,Bourg-en-Bresse,01,,,01053000AE0169,,,16,65.02,6,,,,,,,,2,2,Appartement,64,3,,,,,,5.214816,46.204029
2016-62,2016-01-15,000001,Vente,78114,12,,RUE DE LA CITADELLE,0910,01000,01053,Bourg-en-Bresse,01,,,01053000AE0169,,,24,,,,,,,,,,1,3,Dépendance,,0,,,,,,5.214816,46.204029
2016-63,2016-01-08,000002,Echange,1220,,,PARIZONNES,B081,01270,01147,Domsure,01,,,01147000ZH0089,,,,,,,,,,,,,0,,,,,T,terres,,,7141,5.306849,46.443095
2016-64,2016-01-08,000003,Echange,10,,,PARIZONNES,B081,01270,01147,Domsure,01,,,01147000ZH0091,,,,,,,,,,,,,0,,,,,S,sols,,,46,,
2016-65,2016-01-19,000001,Vente,165400,52,,IMP DE LA GRANDE CHARRIERE,0280,01750,01320,Replonges,01,,,013200000C2850,,,,,,,,,,,,,0,1,Maison,82,4,S,sols,,,554,,
2016-66,2016-01-12,000001,Vente,32000,5560,,BASSE ROSSETTES,B006,01160,01151,Druillat,01,,,011510000C1087,,,,,,,,,,,,,0,3,Dépendance,,0,S,sols,,,142,5.303832,46.068753
2016-67,2016-01-20,000001,Vente,7500,,,LES MARAIS,B118,01190,01016,Arbigny,01,,,01016000ZC0039,,,,,,,,,,,,,0,,,,,P,prés,,,1200,4.932679,46.481637
2016-67,2016-01-20,000001,Vente,7500,,,GRAND PRE,B101,01190,01016,Arbigny,01,,,01016000ZE0257,,,,,,,,,,,,,0,,,,,P,prés,,,1930,4.956895,46.482132
2016-67,2016-01-20,000001,Vente,7500,,,AU CHENE,B043,01190,01016,Arbigny,01,,,01016000ZH0262,,,,,,,,,,,,,0,,,,,P,prés,,,16785,4.965559,46.475813
2016-67,2016-01-20,000001,Vente,7500,,,AU SAUVAGE,B171,01190,01016,Arbigny,01,,,01016000ZH0280,,,,,,,,,,,,,0,,,,,T,terres,,,2090,4.963942,46.477763
2016-67,2016-01-20,000001,Vente,7500,,,AU SAUVAGE,B171,01190,01016,Arbigny,01,,,01016000ZH0282,,,,,,,,,,,,,0,,,,,T,terres,,,17830,4.963486,46.478274
2016-68,2016-01-07,000001,Vente,5000,,,LA MANCHETTE,B128,01560,01139,Curciat-Dongalon,01,,,011390000B0106,,,,,,,,,,,,,0,,,,,T,terres,,,730,5.177766,46.496384
2016-68,2016-01-07,000001,Vente,5000,,,MONTDESERT,B133,01560,01139,Curciat-Dongalon,01,,,011390000B0122,,,,,,,,,,,,,0,,,,,T,terres,,,6910,5.178779,46.496851
2016-68,2016-01-07,000001,Vente,5000,,,MONTDESERT,B133,01560,01139,Curciat-Dongalon,01,,,011390000B0123,,,,,,,,,,,,,0,,,,,T,terres,,,9400,5.179611,46.496795
2016-68,2016-01-07,000001,Vente,5000,,,MONTDESERT,B133,01560,01139,Curciat-Dongalon,01,,,011390000B0184,,,,,,,,,,,,,0,,,,,T,terres,,,2000,5.178942,46.492101
2016-68,2016-01-07,000001,Vente,5000,,,LA SAUZAIE,B196,01560,01139,Curciat-Dongalon,01,,,011390000C0012,,,,,,,,,,,,,0,,,,,T,terres,,,11460,5.188836,46.495058
2016-69,2016-01-12,000001,Vente,215000,5226,,LA VILLE,B320,01160,01273,Neuville-sur-Ain,01,,,01273000AB0020,,,,,,,,,,,,,0,2,Appartement,57,3,S,sols,,,265,5.371236,46.082034
2016-69,2016-01-12,000001,Vente,215000,5226,,LA VILLE,B320,01160,01273,Neuville-sur-Ain,01,,,01273000AB0020,,,,,,,,,,,,,0,3,Dépendance,,0,S,sols,,,265,5.371236,46.082034
2016-69,2016-01-12,000001,Vente,215000,5226,,LA VILLE,B320,01160,01273,Neuville-sur-Ain,01,,,01273000AB0020,,,,,,,,,,,,,0,2,Appartement,137,3,S,sols,,,265,5.371236,46.082034
2016-69,2016-01-12,000001,Vente,215000,5226,,LA VILLE,B320,01160,01273,Neuville-sur-Ain,01,,,01273000AB0020,,,,,,,,,,,,,0,2,Appartement,138,2,S,sols,,,265,5.371236,46.082034
2016-69,2016-01-12,000001,Vente,215000,5226,,LA VILLE,B320,01160,01273,Neuville-sur-Ain,01,,,01273000AB0020,,,,,,,,,,,,,0,2,Appartement,16,1,S,sols,,,265,5.371236,46.082034
2016-70,2016-01-11,000001,Vente,247000,7,,CHAMP ROY,B035,01370,01350,Saint-Étienne-du-Bois,01,,,013500000F0409,,,,,,,,,,,,,0,1,Maison,143,6,S,sols,,,570,5.281034,46.290191
2016-70,2016-01-11,000001,Vente,247000,,,CHAMP ROY,B035,01370,01350,Saint-Étienne-du-Bois,01,,,013500000F0412,,,,,,,,,,,,,0,,,,,S,sols,,,1031,5.281889,46.290425
2016-70,2016-01-11,000001,Vente,247000,,,CHAMP ROY,B035,01370,01350,Saint-Étienne-du-Bois,01,,,013500000F0413,,,,,,,,,,,,,0,,,,,AG,terrains d'agrément,,,663,5.2822,46.29052
2016-70,2016-01-11,000001,Vente,247000,,,CHAMP ROY,B035,01370,01350,Saint-Étienne-du-Bois,01,,,013500000F0418,,,,,,,,,,,,,0,,,,,AG,terrains d'agrément,,,630,5.280751,46.290212
2016-70,2016-01-11,000001,Vente,247000,,,CHAMP ROY,B035,01370,01350,Saint-Étienne-du-Bois,01,,,013500000F0419,,,,,,,,,,,,,0,,,,,S,sols,,,252,5.280729,46.290334
2016-71,2016-01-22,000002,Vente,900,,,LES PINOUX,B121,01570,01231,Manziat,01,,,012310000C1752,,,,,,,,,,,,,0,,,,,T,terres,,,35,4.892107,46.358261
2016-71,2016-01-22,000002,Vente,900,,,LES PINOUX,B121,01570,01231,Manziat,01,,,012310000C1834,,,,,,,,,,,,,0,,,,,P,prés,,,2,4.89193,46.35816
2016-71,2016-01-22,000002,Vente,900,,,LES PINOUX,B121,01570,01231,Manziat,01,,,012310000C1836,,,,,,,,,,,,,0,,,,,P,prés,,,38,4.891845,46.358109
2016-72,2016-01-14,000001,Vente,60000,193,,RUE DE L EGLISE,0001,01250,01197,Journans,01,,,011970000B1098,,,,,,,,,,,,,0,1,Maison,63,2,S,sols,,,230,5.333493,46.144484
2016-73,2016-01-05,000001,Vente,100,,,BOIS DES CHARTREUX,B010,01370,01127,Courmangoux,01,,,011270000D0581,,,,,,,,,,,,,0,,,,,BT,taillis simples,,,359,5.346192,46.313089
2016-74,2016-01-07,000001,Vente,35853,5646,,LE DOUVRE,B333,01370,01426,Val-Revermont,01,,,01426137ZA0151,,,,,,,,,,,,,0,1,Maison,78,2,T,terres,,,13774,5.340742,46.309114
2016-74,2016-01-07,000001,Vente,35853,5646,,LE DOUVRE,B333,01370,01426,Val-Revermont,01,,,01426137ZA0151,,,,,,,,,,,,,0,1,Maison,78,2,S,sols,,,2080,5.340742,46.309114
2016-74,2016-01-07,000001,Vente,35853,5646,,LE DOUVRE,B333,01370,01426,Val-Revermont,01,,,01426137ZA0151,,,,,,,,,,,,,0,1,Maison,78,2,T,terres,,,13774,5.340742,46.309114
2016-75,2016-01-18,000001,Vente,4907.7,4,,AV DU CHAMP DE FOIRE,0770,01000,01053,Bourg-en-Bresse,01,,,01053000BK0154,,,1602,,,,,,,,,,1,4,Local industriel. commercial ou assimilé,91,0,,,,,,5.229557,46.207009
2016-76,2016-01-18,000001,Vente,3277.5,4,,AV DU CHAMP DE FOIRE,0770,01000,01053,Bourg-en-Bresse,01,,,01053000BK0154,,,1604,,,,,,,,,,1,4,Local industriel. commercial ou assimilé,173,0,,,,,,5.229557,46.207009
2016-77,2016-01-18,000001,Vente,27246,4,,AV DU CHAMP DE FOIRE,0770,01000,01053,Bourg-en-Bresse,01,,,01053000BK0154,,,1605,24.56,1606,23.24,,,,,,,2,4,Local industriel. commercial ou assimilé,330,0,,,,,,5.229557,46.207009
2016-78,2016-01-11,000001,Vente,10000,12,B,ALL VINCENT BENONY,3735,01000,01053,Bourg-en-Bresse,01,,,01053000BD0281,,,337,,,,,,,,,,1,3,Dépendance,,0,,,,,,5.238734,46.200671
2016-79,2016-01-19,000001,Vente,293570,6,,IMP DU PRE DE LA GARDE,0390,01250,01422,Tossiat,01,,,014220000D1269,,,,,,,,,,,,,0,1,Maison,131,5,S,sols,,,1004,5.312422,46.140825
2016-79,2016-01-19,000001,Vente,293570,6,,IMP DU PRE DE LA GARDE,0390,01250,01422,Tossiat,01,,,014220000D1269,,,,,,,,,,,,,0,3,Dépendance,,0,S,sols,,,1004,5.312422,46.140825
2016-80,2016-01-11,000001,Vente,142000,186,,RTE DE TOSSIAT,0002,01250,01321,Revonnas,01,,,013210000B0004,,,,,,,,,,,,,0,1,Maison,110,3,S,sols,,,170,5.329191,46.161062
2016-81,2016-01-14,000001,Vente,2999,,,LA PETITE SALLE,B041,01310,01264,Montracol,01,,,012640000B0392,,,,,,,,,,,,,0,,,,,P,prés,,,5960,5.109983,46.175446
2016-82,2016-01-18,000001,Vente,211900,386,,ALL DU SORBIER,0525,01340,01024,Attignat,01,,,01024000AE0057,,,,,,,,,,,,,0,1,Maison,95,4,S,sols,,,929,5.160377,46.280007
2016-83,2016-01-15,000001,Vente,210000,5315,,LE VILLAGE,B048,01310,01264,Montracol,01,,,01264000AA0032,,,,,,,,,,,,,0,4,Local industriel. commercial ou assimilé,,0,S,sols,,,2677,,
2016-83,2016-01-15,000001,Vente,210000,10,,LOT LES CHENES,A020,01310,01264,Montracol,01,,,01264000AA0037,,,,,,,,,,,,,0,3,Dépendance,,0,S,sols,,,911,5.120058,46.198332
2016-83,2016-01-15,000001,Vente,210000,10,,LOT LES CHENES,A020,01310,01264,Montracol,01,,,01264000AA0037,,,,,,,,,,,,,0,1,Maison,96,4,S,sols,,,911,5.120058,46.198332
2016-84,2016-01-19,000001,Vente,80000,,,GRANDES COINTIERES,B134,01240,01145,Dompierre-sur-Veyle,01,,,011450000A0703,,,,,,,,,,,,,0,,,,,AB,terrains a bâtir,,,1520,5.21706,46.081836
2016-85,2016-01-19,000001,Vente,203000,,,LA MONTAGNE,B084,01370,01241,Meillonnas,01,,,012410000C0129,,,,,,,,,,,,,0,,,,,L,landes,,,440,5.349971,46.23756
2016-85,2016-01-19,000001,Vente,203000,,,LA MONTAGNE,B084,01370,01241,Meillonnas,01,,,012410000C0132,,,,,,,,,,,,,0,,,,,L,landes,,,2900,5.349984,46.238131
2016-85,2016-01-19,000001,Vente,203000,,,LA MONTAGNE,B084,01370,01241,Meillonnas,01,,,012410000C0134,,,,,,,,,,,,,0,,,,,L,landes,,,660,5.349324,46.238456
2016-85,2016-01-19,000001,Vente,203000,,,LA MONTAGNE,B084,01370,01241,Meillonnas,01,,,012410000C0136,,,,,,,,,,,,,0,,,,,L,landes,,,1070,5.349615,46.23894
2016-85,2016-01-19,000001,Vente,203000,,,LA MONTAGNE,B084,01370,01241,Meillonnas,01,,,012410000C0137,,,,,,,,,,,,,0,,,,,L,landes,,,1830,5.350018,46.238538
2016-85,2016-01-19,000001,Vente,203000,5297,,LA MONTAGNE,B084,01370,01241,Meillonnas,01,,,012410000C0138,,,,,,,,,,,,,0,1,Maison,120,4,S,sols,,,980,5.350501,46.238284
2016-85,2016-01-19,000001,Vente,203000,,,LA MONTAGNE,B084,01370,01241,Meillonnas,01,,,012410000C0139,,,,,,,,,,,,,0,,,,,L,landes,,,2030,5.350552,46.238615
2016-85,2016-01-19,000001,Vente,203000,,,LA MONTAGNE,B084,01370,01241,Meillonnas,01,,,012410000C0140,,,,,,,,,,,,,0,,,,,L,landes,,,380,5.349913,46.238846
2016-85,2016-01-19,000001,Vente,203000,,,LA MONTAGNE,B084,01370,01241,Meillonnas,01,,,012410000C0221,,,,,,,,,,,,,0,,,,,L,landes,,,782,5.350395,46.237974
2016-85,2016-01-19,000001,Vente,203000,,,SUR LE TREUT,B130,01370,01241,Meillonnas,01,,,01241000ZE0113,,,,,,,,,,,,,0,,,,,P,prés,,,820,5.353356,46.240989
2016-85,2016-01-19,000001,Vente,203000,,,EN POUILLY,B098,01370,01241,Meillonnas,01,,,01241000ZE0200,,,,,,,,,,,,,0,,,,,L,landes,,,4180,5.35086,46.238134
2016-85,2016-01-19,000001,Vente,203000,,,EN POUILLY,B098,01370,01241,Meillonnas,01,,,01241000ZE0201,,,,,,,,,,,,,0,,,,,L,landes,,,6280,5.350381,46.237543
2016-86,2016-01-15,000001,Vente,45000,8,,RUE DU LIMOUSIN,2305,01000,01053,Bourg-en-Bresse,01,,,01053000CH0049,,,231,106.16,,,,,,,,,1,1,Maison,107,5,,,,,,5.274942,46.196315
2016-87,2016-01-19,000001,Vente,80000,,,VACAGNOLE,B112,01340,01024,Attignat,01,,,01024000AK0045,,,,,,,,,,,,,0,,,,,AB,terrains a bâtir,,,850,5.175246,46.264828
2016-88,2016-01-20,000001,Vente,100000,110,,RUE DU PRE PAQUIER,0443,01750,01370,Saint-Laurent-sur-Saône,01,,,013700000A0680,,,133,,,,,,,,,,1,3,Dépendance,,0,,,,,,4.843019,46.307421
2016-88,2016-01-20,000001,Vente,100000,110,,RUE DU PRE PAQUIER,0443,01750,01370,Saint-Laurent-sur-Saône,01,,,013700000A0680,,,132,,,,,,,,,,1,3,Dépendance,,0,,,,,,4.843019,46.307421
2016-88,2016-01-20,000001,Vente,100000,110,,RUE DU PRE PAQUIER,0443,01750,01370,Saint-Laurent-sur-Saône,01,,,013700000A0680,,,53,63.42,,,,,,,,,1,2,Appartement,64,5,,,,,,4.843019,46.307421
2016-89,2016-01-11,000001,Vente,178000,265,,RUE BRICHEMER,0605,01000,01053,Bourg-en-Bresse,01,,,01053000BX0224,,,,,,,,,,,,,0,1,Maison,97,5,S,sols,,,222,5.25221,46.213404
2016-90,2016-01-18,000001,Vente,35000,5129,,LALLEYRIAT,B014,01960,01405,Servas,01,,,014050000A0061,,,,,,,,,,,,,0,3,Dépendance,,0,S,sols,,,224,5.20282,46.153258
2016-90,2016-01-18,000001,Vente,35000,5129,,LALLEYRIAT,B014,01960,01405,Servas,01,,,014050000A0061,,,,,,,,,,,,,0,3,Dépendance,,0,T,terres,,,13376,5.20282,46.153258
2016-90,2016-01-18,000001,Vente,35000,,,LALLEYRIAT,B014,01960,01405,Servas,01,,,014050000A0062,,,,,,,,,,,,,0,,,,,P,prés,,,17310,5.203825,46.153439
2016-91,2016-01-26,000001,Vente,13495.5,,,LES OURES,B170,01240,01145,Dompierre-sur-Veyle,01,,,011450000F0267,,,,,,,,,,,,,0,,,,,P,prés,,,8140,5.218022,46.06465
2016-91,2016-01-26,000001,Vente,13495.5,,,LES OURES,B170,01240,01145,Dompierre-sur-Veyle,01,,,011450000F0268,,,,,,,,,,,,,0,,,,,T,terres,,,32915,5.219431,46.064988
2016-91,2016-01-26,000001,Vente,13495.5,,,LES GUIGNIERES,B137,01240,01145,Dompierre-sur-Veyle,01,,,011450000F0278,,,,,,,,,,,,,0,,,,,T,terres,,,3930,5.219543,46.064101
2016-92,2016-01-18,000001,Vente,132880,501,,RUE DE MAJORNAS,0150,01440,01451,Viriat,01,,,01451000BI0127,,,3,,,,,,,,,,1,3,Dépendance,,0,,,,,,5.214883,46.219282
2016-92,2016-01-18,000001,Vente,132880,501,A,RUE DE MAJORNAS,0150,01440,01451,Viriat,01,,,01451000BI0127,,,1,74.64,,,,,,,,,1,1,Maison,73,3,,,,,,5.214883,46.219282
2016-92,2016-01-18,000001,Vente,132880,501,,RUE DE MAJORNAS,0150,01440,01451,Viriat,01,,,01451000BI0127,,,4,,,,,,,,,,1,3,Dépendance,,0,,,,,,5.214883,46.219282
2016-93,2016-01-11,000001,Vente,66000,,,VILLAGE,B033,01250,01197,Journans,01,,,011970000B1878,,,,,,,,,,,,,0,,,,,AB,terrains a bâtir,,,576,5.329848,46.145069
2016-94,2016-01-13,000001,Vente,145000,,,MAS GIRARD,B165,01370,01426,Val-Revermont,01,,,01426000ZP0008,,,,,,,,,,,,,0,,,,,J,jardins,,,579,5.329403,46.272011
2016-94,2016-01-13,000001,Vente,145000,,,MAS GIRARD,B165,01370,01426,Val-Revermont,01,,,01426000ZP0009,,,,,,,,,,,,,0,,,,,P,prés,,,1526,5.329623,46.271977
2016-94,2016-01-13,000001,Vente,145000,5314,,MAS GIRARD,B165,01370,01426,Val-Revermont,01,,,01426000ZP0134,,,,,,,,,,,,,0,1,Maison,113,4,S,sols,,,560,5.328857,46.272446
2016-94,2016-01-13,000001,Vente,145000,,,MAS GIRARD,B165,01370,01426,Val-Revermont,01,,,01426000ZP0135,,,,,,,,,,,,,0,,,,,T,terres,,,1060,5.329168,46.272308
2016-95,2016-01-25,000001,Vente,1500,,,EN GRAPIN,B143,01380,01025,Bâgé-Dommartin,01,01025,Bâgé-la-Ville,010250000F2589,,,,,,,,,,,,,0,,,,,BT,taillis simples,,,7108,4.9741,46.320341
2016-96,2016-01-29,000001,Vente,204300,33,,ALL DES BOLETS,0512,01000,01053,Bourg-en-Bresse,01,,,01053000CP0190,,,,,,,,,,,,,0,1,Maison,90,4,S,sols,,,744,5.248957,46.191009
2016-97,2016-01-04,000001,Vente,,96,,CHE DES GREMELIERES,0221,01440,01451,Viriat,01,,,01451000AB0090,,,,,,,,,,,,,0,,,,,S,sols,,,332,5.215129,46.266265
2016-97,2016-01-04,000001,Vente,,,,CURTARINGE,B096,01440,01451,Viriat,01,,,01451000AB0142,,,,,,,,,,,,,0,,,,,AB,terrains a bâtir,,,404,5.215026,46.265895
2016-98,2016-02-01,000001,Vente,9000,151,,RUE THOMAS RIBOUD,0135,01250,01195,Jasseron,01,,,01195000AD0635,,,29,,,,,,,,,,1,3,Dépendance,,0,,,,,,5.325893,46.213617
2016-99,2016-02-01,000001,Vente,10000,18,B,RUE DE LA GRENOUILLERE,1790,01000,01053,Bourg-en-Bresse,01,,,01053000AC0394,,,56,,,,,,,,,,1,3,Dépendance,,0,,,,,,5.226629,46.208711
2016-100,2016-01-05,000001,Vente,78000,,,CHAMP DES CROIX,B025,01960,01336,Saint-André-sur-Vieux-Jonc,01,,,013360000A1163,,,,,,,,,,,,,0,,,,,AB,terrains a bâtir,,,912,5.14794,46.161195
2016-101,2016-01-07,000001,Vente,38000,20,,BD VOLTAIRE,3760,01000,01053,Bourg-en-Bresse,01,,,01053000AN0337,,,43,30.03,,,,,,,,,1,2,Appartement,30,0,,,,,,5.22164,46.200773
2016-102,2016-01-07,000001,Vente,161330,15,,RUE HENRI DUNANT,0090,01250,01072,Ceyzériat,01,,,01072000AM0641,,,2,87,5,,9,,,,,,3,2,Appartement,87,4,,,,,,5.320569,46.180794
2016-103,2016-01-25,000001,Vente,82000,151,,RUE THOMAS RIBOUD,0135,01250,01195,Jasseron,01,,,01195000AD0635,,,39,55.3,,,,,,,,,1,2,Appartement,56,2,,,,,,5.325893,46.213617
2016-103,2016-01-25,000001,Vente,82000,151,,RUE THOMAS RIBOUD,0135,01250,01195,Jasseron,01,,,01195000AD0635,,,23,,,,,,,,,,1,3,Dépendance,,0,,,,,,5.325893,46.213617
2016-103,2016-01-25,000001,Vente,82000,137,,RUE THOMAS RIBOUD,0135,01250,01195,Jasseron,01,,,01195000AD0635,,,19,,,,,,,,,,1,3,Dépendance,,0,,,,,,5.325893,46.213617
2016-104,2016-01-12,000001,Vente,200000,,,LES MARAIS,B220,01851,01232,Marboz,01,,,01232000WN0075,,,,,,,,,,,,,0,,,,,T,terres,,,47138,5.219712,46.334351
2016-104,2016-01-12,000001,Vente,200000,,,JANE,B205,01851,01232,Marboz,01,,,01232000WN0077,,,,,,,,,,,,,0,,,,,P,prés,,,2603,5.217929,46.334861
2016-104,2016-01-12,000001,Vente,200000,,,LES MARAIS,B220,01851,01232,Marboz,01,,,01232000WN0151,,,,,,,,,,,,,0,,,,,S,sols,,,190,5.222386,46.334927
2016-104,2016-01-12,000001,Vente,200000,,,LES MARAIS,B220,01851,01232,Marboz,01,,,01232000WN0151,,,,,,,,,,,,,0,,,,,P,prés,,,16908,5.222386,46.334927
2016-104,2016-01-12,000001,Vente,200000,5331,,LES MARAIS,B220,01851,01232,Marboz,01,,,01232000WN0156,,,,,,,,,,,,,0,1,Maison,108,4,S,sols,,,3880,5.223872,46.334226
2016-104,2016-01-12,000001,Vente,200000,5331,,LES MARAIS,B220,01851,01232,Marboz,01,,,01232000WN0156,,,,,,,,,,,,,0,1,Maison,40,1,S,sols,,,3880,5.223872,46.334226
2016-104,2016-01-12,000001,Vente,200000,,,LES MARAIS,B220,01851,01232,Marboz,01,,,01232000WN0157,,,,,,,,,,,,,0,,,,,S,sols,,,1595,5.223275,46.334445
2016-104,2016-01-12,000001,Vente,200000,,,JANE,B205,01851,01232,Marboz,01,,,01232000WN0159,,,,,,,,,,,,,0,,,,,BT,taillis simples,,,2330,5.217781,46.334586
2016-104,2016-01-12,000001,Vente,200000,,,JANE,B205,01851,01232,Marboz,01,,,01232000WN0160,,,,,,,,,,,,,0,,,,,BT,taillis simples,,,640,5.218,46.334183
2016-104,2016-01-12,000001,Vente,200000,,,JANE,B205,01851,01232,Marboz,01,,,01232000WN0162,,,,,,,,,,,,,0,,,,,BT,taillis simples,,,3430,5.218243,46.334971
2016-105,2016-01-15,000001,Vente,65000,,,LE VILLAGE,B168,01250,01184,Hautecourt-Romanèche,01,,,01184000AO0335,,,,,,,,,,,,,0,,,,,T,terres,,,66,5.417881,46.159845
2016-105,2016-01-15,000001,Vente,65000,,,LE VILLAGE,B168,01250,01184,Hautecourt-Romanèche,01,,,01184000AO0336,,,,,,,,,,,,,0,,,,,S,sols,,,335,5.417813,46.159917
2016-105,2016-01-15,000001,Vente,65000,,,LE VILLAGE,B168,01250,01184,Hautecourt-Romanèche,01,,,01184000AO0338,,,,,,,,,,,,,0,,,,,S,sols,,,40,5.417619,46.159798
2016-106,2016-01-19,000001,Vente,312,,,VILLAGE DE CUISIAT,B407,01370,01426,Val-Revermont,01,,,01426137AC0028,,,,,,,,,,,,,0,,,,,P,prés,,,104,5.388245,46.296902
2016-107,2016-01-12,000001,Vente,160000,203,,RUE MARYSE BASTIE,0220,01000,01344,Saint-Denis-lès-Bourg,01,,,01344000AK0139,,,,,,,,,,,,,0,1,Maison,90,5,S,sols,,,768,5.2067,46.19406
2016-108,2016-02-02,000001,Vente,5145,,,A L ETRANGLE,B016,01250,01184,Hautecourt-Romanèche,01,,,011843270B0305,,,,,,,,,,,,,0,,,,,P,prés,,,2940,5.443184,46.190155
2016-109,2016-01-22,000001,Vente,164000,5024,,SIMANDRE,B091,01560,01230,Mantenay-Montlin,01,,,01230000ZP0070,,,,,,,,,,,,,0,1,Maison,172,5,S,sols,,,2040,5.096982,46.435446
2016-110,2016-01-15,000001,Vente,1199,,,TERRES DES RANGOUX,B028,01250,01197,Journans,01,,,01197000ZC0031,,,,,,,,,,,,,0,,,,,VI,vignes,,,1096,5.33142,46.150281
2016-111,2016-01-26,000001,Vente,128000,5044,B,BAS DU BIEF,B005,01190,01016,Arbigny,01,,,01016000AB0245,,,,,,,,,,,,,0,1,Maison,126,4,J,jardins,,,600,4.964037,46.470814
2016-111,2016-01-26,000001,Vente,128000,5044,B,BAS DU BIEF,B005,01190,01016,Arbigny,01,,,01016000AB0245,,,,,,,,,,,,,0,1,Maison,126,4,S,sols,,,1613,4.964037,46.470814
2016-111,2016-01-26,000001,Vente,128000,5044,B,BAS DU BIEF,B005,01190,01016,Arbigny,01,,,01016000AB0245,,,,,,,,,,,,,0,1,Maison,70,1,S,sols,,,1613,4.964037,46.470814
2016-111,2016-01-26,000001,Vente,128000,5044,B,BAS DU BIEF,B005,01190,01016,Arbigny,01,,,01016000AB0245,,,,,,,,,,,,,0,1,Maison,70,1,J,jardins,,,600,4.964037,46.470814
2016-111,2016-01-26,000001,Vente,128000,,,BAS DU BIEF,B005,01190,01016,Arbigny,01,,,01016000AB0247,,,,,,,,,,,,,0,,,,,S,sols,,,218,4.963942,46.471075
2016-112,2016-01-11,000001,Vente,120700,,,RUE JEAN MONNET,0221,01960,01289,Péronnas,01,,,01289000AT0291,,,,,,,,,,,,,0,,,,,S,sols,,,419,5.199872,46.179559
2016-113,2016-01-06,000001,Vente,108800,3,,PL DE LA COMMUNE,0953,01000,01053,Bourg-en-Bresse,01,,,01053000AZ0445,,,3317,89.44,,,,,,,,,1,2,Appartement,84,4,,,,,,5.228907,46.200364
2016-114,2016-02-02,000001,Vente,216300,19,,RUE EUGENE DUBOIS,1470,01000,01053,Bourg-en-Bresse,01,,,01053000AH0345,,,,,,,,,,,,,0,1,Maison,91,5,S,sols,,,500,5.211103,46.202996
2016-115,2016-01-21,000001,Vente,265500,,,LES BELOUSES,B001,01380,01026,Bâgé-le-Châtel,01,,,010260000A0631,,,,,,,,,,,,,0,,,,,P,prés,,,839,4.933484,46.311201
2016-115,2016-01-21,000001,Vente,265500,,,LES BELOUSES,B001,01380,01026,Bâgé-le-Châtel,01,,,010260000A0638,,,,,,,,,,,,,0,,,,,VI,vignes,,,75,4.934122,46.311409
2016-115,2016-01-21,000001,Vente,265500,,,LES BELOUSES,B001,01380,01026,Bâgé-le-Châtel,01,,,010260000A0639,,,,,,,,,,,,,0,,,,,P,prés,,,92,4.934116,46.311185
2016-115,2016-01-21,000001,Vente,265500,5234,,LES BELOUSES,B001,01380,01026,Bâgé-le-Châtel,01,,,010260000A0882,,,,,,,,,,,,,0,1,Maison,136,5,S,sols,,,2134,4.933751,46.311285
2016-116,2016-01-08,000001,Vente,114000,,,LES ROLLETS,B255,01380,01025,Bâgé-Dommartin,01,01025,Bâgé-la-Ville,010250000B1217,,,,,,,,,,,,,0,,,,,T,terres,,,5305,,
2016-117,2016-01-30,000001,Vente,2200,,,VERS MARCOUX,B146,01250,01095,Nivigne et Suran,01,01095,Chavannes-sur-Suran,01095000AE0145,,,,,,,,,,,,,0,,,,,P,prés,,,939,5.421965,46.25365
2016-117,2016-01-30,000001,Vente,2200,,,VERS LA RAVONNE,B143,01250,01095,Nivigne et Suran,01,01095,Chavannes-sur-Suran,010950000F0115,,,,,,,,,,,,,0,,,,,L,landes,,,970,5.409833,46.270339
2016-117,2016-01-30,000001,Vente,2200,,,VERS LA RAVONNE,B143,01250,01095,Nivigne et Suran,01,01095,Chavannes-sur-Suran,010950000F0136,,,,,,,,,,,,,0,,,,,P,prés,,,2208,5.413445,46.269279
2016-117,2016-01-30,000001,Vente,2200,,,VERS LA RAVONNE,B143,01250,01095,Nivigne et Suran,01,01095,Chavannes-sur-Suran,010950000F0137,,,,,,,,,,,,,0,,,,,BT,taillis simples,,,420,5.413962,46.26909
2016-117,2016-01-30,000001,Vente,2200,,,SOUS LE BOIS VERT,B129,01250,01095,Nivigne et Suran,01,01095,Chavannes-sur-Suran,010950000F0273,,,,,,,,,,,,,0,,,,,P,prés,,,2930,5.411575,46.268954
2016-117,2016-01-30,000001,Vente,2200,,,SOUS LE BOIS VERT,B129,01250,01095,Nivigne et Suran,01,01095,Chavannes-sur-Suran,010950000F0279,,,,,,,,,,,,,0,,,,,P,prés,,,1657,5.410899,46.267823
2016-117,2016-01-30,000001,Vente,2200,,,SOUS LE BOIS VERT,B129,01250,01095,Nivigne et Suran,01,01095,Chavannes-sur-Suran,010950000F0282,,,,,,,,,,,,,0,,,,,P,prés,,,1408,5.410139,46.267832
2016-117,2016-01-30,000001,Vente,2200,,,SOUS LE BOIS VERT,B129,01250,01095,Nivigne et Suran,01,01095,Chavannes-sur-Suran,010950000F0335,,,,,,,,,,,,,0,,,,,L,landes,,,1390,5.40772,46.26632
2016-117,2016-01-30,000001,Vente,2200,,,VERS FOY,B140,01250,01095,Nivigne et Suran,01,01095,Chavannes-sur-Suran,010950000F0391,,,,,,,,,,,,,0,,,,,BT,taillis simples,,,1220,5.40303,46.264665
2016-117,2016-01-30,000001,Vente,2200,,,VERS FOY,B140,01250,01095,Nivigne et Suran,01,01095,Chavannes-sur-Suran,010950000F0424,,,,,,,,,,,,,0,,,,,P,prés,,,1340,5.407967,46.262411
2016-117,2016-01-30,000001,Vente,2200,,,VERS FOY,B140,01250,01095,Nivigne et Suran,01,01095,Chavannes-sur-Suran,010950000F0428,,,,,,,,,,,,,0,,,,,L,landes,,,805,5.405827,46.264011
2016-117,2016-01-30,000001,Vente,2200,,,VERS FOY,B140,01250,01095,Nivigne et Suran,01,01095,Chavannes-sur-Suran,010950000F0462,,,,,,,,,,,,,0,,,,,L,landes,,,1030,5.399947,46.264527
2016-117,2016-01-30,000001,Vente,2200,,,VERS FOY,B140,01250,01095,Nivigne et Suran,01,01095,Chavannes-sur-Suran,010950000F0465,,,,,,,,,,,,,0,,,,,L,landes,,,1950,5.399034,46.264484
2016-117,2016-01-30,000001,Vente,2200,,,AUX GROBONNIERES,B078,01250,01095,Nivigne et Suran,01,01095,Chavannes-sur-Suran,010950000G0202,,,,,,,,,,,,,0,,,,,L,landes,,,510,5.403007,46.25736
2016-117,2016-01-30,000001,Vente,2200,,,AUX GROBONNIERES,B078,01250,01095,Nivigne et Suran,01,01095,Chavannes-sur-Suran,010950000G0254,,,,,,,,,,,,,0,,,,,L,landes,,,240,5.398651,46.260383
2016-117,2016-01-30,000001,Vente,2200,,,EN PONCELIN,B110,01250,01095,Nivigne et Suran,01,01095,Chavannes-sur-Suran,01095000ZD0138,,,,,,,,,,,,,0,,,,,L,landes,,,2010,5.419214,46.268235
2016-117,2016-01-30,000002,Vente,2200,,,AU CHAMP PERRIN,B023,01250,01095,Nivigne et Suran,01,01095,Chavannes-sur-Suran,01095000ZE0093,,,,,,,,,,,,,0,,,,,P,prés,,,9115,5.432281,46.263501
2016-118,2016-01-15,000001,Vente,57200,,,LES ROLLETS,B255,01380,01025,Bâgé-Dommartin,01,01025,Bâgé-la-Ville,010250000B1219,,,,,,,,,,,,,0,,,,,T,terres,,,1442,4.92602,46.334716
2016-119,2016-01-08,000001,Vente,182644,,,NANCIN,B212,01570,01159,Feillens,01,,,01159000AC0289,,,,,,,,,,,,,0,,,,,S,sols,,,48,4.883935,46.337362
2016-119,2016-01-08,000001,Vente,182644,,,LE BOURG OUEST,B035,01570,01159,Feillens,01,,,01159000AN0402,,,,,,,,,,,,,0,,,,,J,jardins,,,165,4.88401,46.337331
2016-119,2016-01-08,000001,Vente,182644,210,,RTE DU DEGOTTET,0116,01570,01159,Feillens,01,,,01159000AN0611,,,,,,,,,,,,,0,1,Maison,100,4,S,sols,,,269,4.885315,46.337292
2016-119,2016-01-08,000001,Vente,182644,,,LE BOURG OUEST,B035,01570,01159,Feillens,01,,,01159000AN0612,,,,,,,,,,,,,0,,,,,S,sols,,,381,4.885554,46.33723
2016-119,2016-01-08,000001,Vente,182644,,,LE BOURG OUEST,B035,01570,01159,Feillens,01,,,01159000AN0613,,,,,,,,,,,,,0,,,,,S,sols,,,525,4.884646,46.337334
2016-120,2016-01-16,000001,Vente,100000,220,,RTE DES CHEVRES,0095,01570,01159,Feillens,01,,,01159000AC0088,,,,,,,,,,,,,0,1,Maison,94,4,S,sols,,,1415,4.889207,46.338979
2016-120,2016-01-16,000001,Vente,100000,,,LES CHEVRES,B088,01570,01159,Feillens,01,,,01159000AC0345,,,,,,,,,,,,,0,,,,,AG,terrains d'agrément,JARD,Jardin d'agrément,134,4.889532,46.338896
2016-121,2016-01-28,000002,Vente,60000,,,GERBET,B120,01380,01025,Bâgé-Dommartin,01,01025,Bâgé-la-Ville,010250000H1215,,,,,,,,,,,,,0,,,,,S,sols,,,769,4.945516,46.310846
2016-121,2016-01-28,000002,Vente,60000,,,GERBET,B120,01380,01025,Bâgé-Dommartin,01,01025,Bâgé-la-Ville,010250000H1218,,,,,,,,,,,,,0,,,,,P,prés,,,644,4.945209,46.310785
2016-122,2016-01-15,000001,Vente,235714,8,,AV LOUIS JOURDAN,2350,01000,01053,Bourg-en-Bresse,01,,,01053000AD0519,,,5,,69,,,,,,,,2,2,Appartement,109,4,,,,,,5.220732,46.203784
2016-122,2016-01-15,000001,Vente,235714,8,,AV LOUIS JOURDAN,2350,01000,01053,Bourg-en-Bresse,01,,,01053000AD0519,,,250,,,,,,,,,,1,3,Dépendance,,0,,,,,,5.220732,46.203784
2016-123,2016-01-08,000001,Vente,270000,306,,RUE LAVOISIER,0225,01960,01289,Péronnas,01,,,012890000B2554,,,,,,,,,,,,,0,4,Local industriel. commercial ou assimilé,780,0,S,sols,,,2500,5.195507,46.168577
2016-124,2016-01-18,000001,Vente,120000,191,J,RTE DE MACON,0125,01290,01179,Grièges,01,,,01179000AB0448,,,,,,,,,,,,,0,1,Maison,105,5,S,sols,,,302,4.851602,46.25837
2016-125,2016-01-15,000002,Vente,74951.2,,,LA LUIZARDE,B083,01310,01301,Polliat,01,,,01301000AA0254,,,,,,,,,,,,,0,,,,,AB,terrains a bâtir,,,4931,5.11059,46.24789
2016-126,2016-01-15,000001,Vente,,,,CHAMP DOUVRES,B019,01310,01301,Polliat,01,,,01301000ZK0013,,,,,,,,,,,,,0,,,,,T,terres,,,22133,5.130139,46.245568
2016-127,2016-01-26,000001,Vente,190000,5069,,HAMEAU DES VILLARDS,B058,01290,01203,Laiz,01,,,012030000B0429,,,,,,,,,,,,,0,1,Maison,92,4,S,sols,,,1744,4.888465,46.242578
2016-127,2016-01-26,000001,Vente,190000,,,HAMEAU DES VILLARDS,B058,01290,01203,Laiz,01,,,012030000B1260,,,,,,,,,,,,,0,,,,,P,prés,,,295,4.888476,46.242932
2016-127,2016-01-26,000001,Vente,190000,,,HAMEAU DES VILLARDS,B058,01290,01203,Laiz,01,,,012030000B1324,,,,,,,,,,,,,0,,,,,T,terres,,,351,4.888426,46.242245
2016-127,2016-01-26,000001,Vente,190000,,,HAMEAU DES VILLARDS,B058,01290,01203,Laiz,01,,,012030000B1326,,,,,,,,,,,,,0,,,,,P,prés,,,10,4.888536,46.242182
2016-128,2016-01-28,000002,Vente,11368,,,THOL,B299,01160,01273,Neuville-sur-Ain,01,,,012730000E2074,,,,,,,,,,,,,0,,,,,P,prés,,,498,5.371306,46.067019
2016-129,2016-01-28,000001,Vente,14632,,,THOL,B299,01160,01273,Neuville-sur-Ain,01,,,012730000E2073,,,,,,,,,,,,,0,,,,,P,prés,,,641,5.371963,46.066929
2016-130,2016-01-28,000001,Vente,26140,,,COTE BOLLET,B135,01160,01273,Neuville-sur-Ain,01,,,012730000D0431,,,,,,,,,,,,,0,,,,,P,prés,,,150,5.370192,46.072496
2016-130,2016-01-28,000001,Vente,26140,,,COTE BOLLET,B135,01160,01273,Neuville-sur-Ain,01,,,012730000D0487,,,,,,,,,,,,,0,,,,,BT,taillis simples,,,210,5.373055,46.073204
2016-130,2016-01-28,000001,Vente,26140,,,COTE BOLLET,B135,01160,01273,Neuville-sur-Ain,01,,,012730000D0489,,,,,,,,,,,,,0,,,,,BT,taillis simples,,,290,5.372834,46.073427
2016-130,2016-01-28,000001,Vente,26140,,,COLLONGE,B097,01160,01273,Neuville-sur-Ain,01,,,012730000E0429,,,,,,,,,,,,,0,,,,,BT,taillis simples,ACACI,Acacias,175,5.367245,46.062935
2016-130,2016-01-28,000001,Vente,26140,,,COLLONGE,B097,01160,01273,Neuville-sur-Ain,01,,,012730000E0448,,,,,,,,,,,,,0,,,,,BT,taillis simples,,,260,5.36598,46.062632
2016-130,2016-01-28,000001,Vente,26140,,,COLLONGE,B097,01160,01273,Neuville-sur-Ain,01,,,012730000E0453,,,,,,,,,,,,,0,,,,,BT,taillis simples,,,630,5.365681,46.06258
2016-130,2016-01-28,000001,Vente,26140,,,COLLONGE,B097,01160,01273,Neuville-sur-Ain,01,,,012730000E0466,,,,,,,,,,,,,0,,,,,BT,taillis simples,,,700,5.364114,46.062046
2016-130,2016-01-28,000001,Vente,26140,,,COLLONGE,B097,01160,01273,Neuville-sur-Ain,01,,,012730000E0469,,,,,,,,,,,,,0,,,,,L,landes,,,1365,5.364581,46.062177
2016-130,2016-01-28,000001,Vente,26140,,,COLLONGE,B097,01160,01273,Neuville-sur-Ain,01,,,012730000E0470,,,,,,,,,,,,,0,,,,,BT,taillis simples,,,675,5.364688,46.062248
2016-130,2016-01-28,000001,Vente,26140,,,COLLONGE,B097,01160,01273,Neuville-sur-Ain,01,,,012730000E0477,,,,,,,,,,,,,0,,,,,BT,taillis simples,,,540,5.363946,46.063368
2016-130,2016-01-28,000001,Vente,26140,,,COLLONGE,B097,01160,01273,Neuville-sur-Ain,01,,,012730000E0479,,,,,,,,,,,,,0,,,,,BT,taillis simples,,,1610,5.363881,46.063044
2016-130,2016-01-28,000001,Vente,26140,,,COLLONGE,B097,01160,01273,Neuville-sur-Ain,01,,,012730000E0485,,,,,,,,,,,,,0,,,,,BT,taillis simples,,,490,5.364658,46.062317
2016-130,2016-01-28,000001,Vente,26140,,,COLLONGE,B097,01160,01273,Neuville-sur-Ain,01,,,012730000E0487,,,,,,,,,,,,,0,,,,,BT,taillis simples,,,490,5.364887,46.062311
2016-130,2016-01-28,000001,Vente,26140,,,COLLONGE,B097,01160,01273,Neuville-sur-Ain,01,,,012730000E0489,,,,,,,,,,,,,0,,,,,BT,taillis simples,,,560,5.364926,46.062414
2016-130,2016-01-28,000001,Vente,26140,,,COLLONGE,B097,01160,01273,Neuville-sur-Ain,01,,,012730000E0490,,,,,,,,,,,,,0,,,,,BT,taillis simples,,,570,5.364947,46.06246
2016-130,2016-01-28,000001,Vente,26140,,,COLLONGE,B097,01160,01273,Neuville-sur-Ain,01,,,012730000E0497,,,,,,,,,,,,,0,,,,,BT,taillis simples,,,515,5.365207,46.06266
2016-130,2016-01-28,000001,Vente,26140,,,COLLONGE,B097,01160,01273,Neuville-sur-Ain,01,,,012730000E0498,,,,,,,,,,,,,0,,,,,BT,taillis simples,,,650,5.364798,46.06297
2016-130,2016-01-28,000001,Vente,26140,,,COLLONGE,B097,01160,01273,Neuville-sur-Ain,01,,,012730000E0500,,,,,,,,,,,,,0,,,,,BT,taillis simples,,,410,5.36483,46.063121
2016-130,2016-01-28,000001,Vente,26140,,,COLLONGE,B097,01160,01273,Neuville-sur-Ain,01,,,012730000E0510,,,,,,,,,,,,,0,,,,,BT,taillis simples,,,340,5.365255,46.063573
2016-130,2016-01-28,000001,Vente,26140,,,COLLONGE,B097,01160,01273,Neuville-sur-Ain,01,,,012730000E0511,,,,,,,,,,,,,0,,,,,BT,taillis simples,,,340,5.365262,46.06362
2016-130,2016-01-28,000001,Vente,26140,,,COLLONGE,B097,01160,01273,Neuville-sur-Ain,01,,,012730000E0532,,,,,,,,,,,,,0,,,,,BT,taillis simples,,,430,5.366882,46.06359
2016-130,2016-01-28,000001,Vente,26140,,,THOL,B299,01160,01273,Neuville-sur-Ain,01,,,012730000E0887,,,,,,,,,,,,,0,,,,,S,sols,,,360,5.368363,46.068179
2016-130,2016-01-28,000001,Vente,26140,,,THOL,B299,01160,01273,Neuville-sur-Ain,01,,,012730000E0888,,,,,,,,,,,,,0,,,,,L,landes,,,14,5.368236,46.067976
2016-130,2016-01-28,000001,Vente,26140,,,THOL,B299,01160,01273,Neuville-sur-Ain,01,,,012730000E0890,,,,,,,,,,,,,0,,,,,S,sols,,,352,5.368261,46.068237
2016-130,2016-01-28,000001,Vente,26140,,,THOL,B299,01160,01273,Neuville-sur-Ain,01,,,012730000E0892,,,,,,,,,,,,,0,,,,,BT,taillis simples,ACACI,Acacias,76,5.36812,46.068229
2016-131,2016-01-21,000001,Vente,225000,6190,,CHE DES AGNELOUX,0005,01160,01304,Pont-d'Ain,01,,,013040000E0697,,,,,,,,,,,,,0,1,Maison,104,5,S,sols,,,617,5.345602,46.041765
2016-131,2016-01-21,000001,Vente,225000,,,DOMAINE PANET,B038,01160,01304,Pont-d'Ain,01,,,013040000E0699,,,,,,,,,,,,,0,,,,,S,sols,,,347,5.345897,46.041697
2016-131,2016-01-21,000001,Vente,225000,,,DOMAINE PANET,B038,01160,01304,Pont-d'Ain,01,,,013040000E0700,,,,,,,,,,,,,0,,,,,AB,terrains a bâtir,,,10,5.345469,46.041772
2016-131,2016-01-21,000001,Vente,225000,,,DOMAINE PANET,B038,01160,01304,Pont-d'Ain,01,,,013040000E0706,,,,,,,,,,,,,0,,,,,S,sols,,,184,5.346003,46.041661
2016-132,2016-01-08,000001,Vente,179500,5192,,LA FREGONIERE,B047,01560,01230,Mantenay-Montlin,01,,,01230000ZM0113,,,,,,,,,,,,,0,1,Maison,111,3,S,sols,,,700,5.101054,46.422115
2016-132,2016-01-08,000001,Vente,179500,5192,,LA FREGONIERE,B047,01560,01230,Mantenay-Montlin,01,,,01230000ZM0113,,,,,,,,,,,,,0,1,Maison,111,3,AG,terrains d'agrément,,,579,5.101054,46.422115
2016-133,2016-01-28,000001,Vente,2700,,,LES MAGNINS,B071,01340,01236,Marsonnas,01,,,01236000AP0024,,,,,,,,,,,,,0,,,,,P,prés,,,708,5.064619,46.328755
2016-133,2016-01-28,000001,Vente,2700,,,LES MAGNINS,B071,01340,01236,Marsonnas,01,,,01236000AP0025,,,,,,,,,,,,,0,,,,,P,prés,,,924,5.064661,46.328925
2016-133,2016-01-28,000001,Vente,2700,,,LES FONTAINES,B054,01340,01236,Marsonnas,01,,,01236000AP0083,,,,,,,,,,,,,0,,,,,T,terres,,,2492,5.069753,46.325181
2016-133,2016-01-28,000001,Vente,2700,,,FRANDAN,B058,01340,01236,Marsonnas,01,,,01236000AP0204,,,,,,,,,,,,,0,,,,,BT,taillis simples,,,350,5.069443,46.324823
2016-133,2016-01-28,000001,Vente,2700,,,LES SONARONS,B023,01340,01387,Saint-Sulpice,01,,,013870000A0195,,,,,,,,,,,,,0,,,,,BT,taillis simples,,,8800,5.050647,46.322738
2016-134,2016-01-25,000001,Vente en l'état futur d'achèvement,155000,9001,,RUE HELENE BOUCHER,1850,01000,01053,Bourg-en-Bresse,01,,,01053000BM0425,,,28,,,,,,,,,,1,3,Dépendance,,0,,,,,,5.234012,46.21193
2016-134,2016-01-25,000001,Vente en l'état futur d'achèvement,155000,9001,,RUE HELENE BOUCHER,1850,01000,01053,Bourg-en-Bresse,01,,,01053000BM0425,,,3,,,,,,,,,,1,2,Appartement,68,3,,,,,,5.234012,46.21193
2016-135,2016-01-22,000001,Vente,150000,8,,RUE JOSEPH BROSSARD,2090,01000,01053,Bourg-en-Bresse,01,,,01053000AV0071,,,,,,,,,,,,,0,1,Maison,71,4,S,sols,,,566,5.235454,46.191914
2016-136,2016-02-03,000001,Vente,198500,221,,RUE DES CHARDONNERETS,0098,01000,01344,Saint-Denis-lès-Bourg,01,,,01344000AK0079,,,,,,,,,,,,,0,1,Maison,113,5,S,sols,,,659,5.206503,46.195482
2016-137,2016-01-25,000001,Vente,140000,9001,,RUE HELENE BOUCHER,1850,01000,01053,Bourg-en-Bresse,01,,,01053000BM0425,,,29,,,,,,,,,,1,3,Dépendance,,0,,,,,,5.234012,46.21193
2016-137,2016-01-25,000001,Vente,140000,9001,,RUE HELENE BOUCHER,1850,01000,01053,Bourg-en-Bresse,01,,,01053000BM0425,,,1,,,,,,,,,,1,2,Appartement,60,3,,,,,,5.234012,46.21193
2016-138,2016-01-06,000001,Vente,117961,4,,AV JEAN JAURES,1970,01000,01053,Bourg-en-Bresse,01,,,01053000AM0199,,,1,,31,88.2,,,,,,,2,2,Appartement,81,4,,,,,,5.218452,46.20033
2016-139,2016-01-29,000001,Vente en l'état futur d'achèvement,172000,,,ATTIGNAT VILLAGE,B002,01340,01024,Attignat,01,,,01024000AB0086,,,49,,,,,,,,,,1,3,Dépendance,,0,,,,,,5.159087,46.290388
2016-139,2016-01-29,000001,Vente en l'état futur d'achèvement,172000,,,ATTIGNAT VILLAGE,B002,01340,01024,Attignat,01,,,01024000AB0086,,,18,67.7,24,,,,,,,,2,2,Appartement,67,3,,,,,,5.159087,46.290388
2016-140,2016-02-02,000001,Vente,2420,,,AU BOURG,B008,01340,01236,Marsonnas,01,,,01236000AN0037,,,,,,,,,,,,,0,,,,,J,jardins,,,121,5.07003,46.340771
2016-141,2016-01-27,000002,Vente,25000,,,VERS LA CROIX,B308,01160,01273,Neuville-sur-Ain,01,,,012730000E2072,,,,,,,,,,,,,0,,,,,J,jardins,,,601,5.370618,46.064318
2016-142,2016-02-02,000001,Vente,166500,13,,RUE DU PONT ROUGE,0064,01290,01306,Pont-de-Veyle,01,,,013060000A1459,,,,,,,,,,,,,0,1,Maison,73,3,S,sols,,,500,4.881226,46.262471
2016-142,2016-02-02,000001,Vente,166500,,,LES GABONNIERES,B005,01290,01306,Pont-de-Veyle,01,,,013060000A1460,,,,,,,,,,,,,0,,,,,S,sols,,,105,4.881029,46.262379
2016-142,2016-02-02,000001,Vente,166500,,,LES SERVES,B015,01290,01306,Pont-de-Veyle,01,,,013060000A1548,,,,,,,,,,,,,0,,,,,P,prés,,,128,4.881027,46.262509
2016-143,2016-01-25,000001,Vente,137000,11,,RUE CHARLES GUILLON,0790,01000,01053,Bourg-en-Bresse,01,,,01053000AZ0464,,,7,76.46,,,,,,,,,1,2,Appartement,78,3,,,,,,5.231613,46.201071
2016-144,2016-02-05,000001,Vente,177250,25,,RUE DE TOURAINE,3617,01000,01053,Bourg-en-Bresse,01,,,01053000CH0049,,,332,108.12,,,,,,,,,1,1,Maison,104,5,,,,,,5.274942,46.196315
2016-145,2016-01-20,000001,Vente,46740,,,CHAMP DU BOIS,B027,01340,01024,Attignat,01,,,01024000AL0051,,,,,,,,,,,,,0,,,,,AB,terrains a bâtir,,,1558,5.171019,46.263923
2016-146,2016-01-22,000001,Vente,,,,CHARMEIL,B035,01340,01024,Attignat,01,,,01024000AD0010,,,,,,,,,,,,,0,,,,,S,sols,,,4,5.157037,46.282355
2016-147,2016-02-02,000001,Vente,135000,108,,RTE DU MOULIN DE LA DEBONNE,0248,01570,01159,Feillens,01,,,01159000AK0131,,,,,,,,,,,,,0,1,Maison,85,3,S,sols,,,617,4.892747,46.326711
2016-148,2016-01-20,000001,Vente,187350,43,,RUE DE MONTHOLON,2730,01000,01053,Bourg-en-Bresse,01,,,01053000AI0241,,,108,,,,,,,,,,1,3,Dépendance,,0,,,,,,5.210742,46.195719
2016-148,2016-01-20,000001,Vente,187350,43,,RUE DE MONTHOLON,2730,01000,01053,Bourg-en-Bresse,01,,,01053000AI0241,,,58,,,,,,,,,,1,3,Dépendance,,0,,,,,,5.210742,46.195719
2016-148,2016-01-20,000001,Vente,187350,43,,RUE DE MONTHOLON,2730,01000,01053,Bourg-en-Bresse,01,,,01053000AI0241,,,53,69.32,,,,,,,,,1,2,Appartement,69,3,,,,,,5.210742,46.195719
2016-149,2016-01-20,000001,Vente,199583,43,,RUE DE MONTHOLON,2730,01000,01053,Bourg-en-Bresse,01,,,01053000AI0241,,,60,79.54,,,,,,,,,1,2,Appartement,79,4,,,,,,5.210742,46.195719
2016-149,2016-01-20,000001,Vente,199583,43,,RUE DE MONTHOLON,2730,01000,01053,Bourg-en-Bresse,01,,,01053000AI0241,,,103,,,,,,,,,,1,3,Dépendance,,0,,,,,,5.210742,46.195719
2016-149,2016-01-20,000001,Vente,199583,43,,RUE DE MONTHOLON,2730,01000,01053,Bourg-en-Bresse,01,,,01053000AI0241,,,67,,,,,,,,,,1,3,Dépendance,,0,,,,,,5.210742,46.195719
2016-150,2016-02-01,000001,Vente,66666.66,,,LE PORTAIL,B191,01340,01346,Saint-Didier-d'Aussiat,01,,,01346000AS0204,,,,,,,,,,,,,0,,,,,T,terres,,,1247,5.053886,46.300344
2016-150,2016-02-01,000001,Vente,66666.66,987,,RTE DE MEZERIAT,0150,01340,01346,Saint-Didier-d'Aussiat,01,,,01346000AS0205,,,,,,,,,,,,,0,1,Maison,154,5,S,sols,,,3022,5.054348,46.30067
2016-150,2016-02-01,000001,Vente,66666.66,,,LE PORTAIL,B191,01340,01346,Saint-Didier-d'Aussiat,01,,,01346000AS0301,,,,,,,,,,,,,0,,,,,P,prés,,,263,5.054323,46.30025
2016-151,2016-01-28,000001,Vente en l'état futur d'achèvement,204702.19,,,LE BOURG OUEST,B018,01570,01231,Manziat,01,,,01231000AI0453,,,19,,,,,,,,,,1,,,,,,,,,,4.906521,46.358719
2016-152,2016-01-22,000001,Vente,288200,37,,LE CHATELET,B040,01370,01350,Saint-Étienne-du-Bois,01,,,013500000F0356,,,,,,,,,,,,,0,1,Maison,131,4,AG,terrains d'agrément,,,1608,5.284795,46.290662
2016-152,2016-01-22,000001,Vente,288200,37,,LE CHATELET,B040,01370,01350,Saint-Étienne-du-Bois,01,,,013500000F0356,,,,,,,,,,,,,0,1,Maison,131,4,S,sols,,,500,5.284795,46.290662
2016-153,2016-01-14,000001,Vente,215850,,,LES FOURNILS,B066,01250,01195,Jasseron,01,,,01195000AE0407,,,,,,,,,,,,,0,,,,,S,sols,,,67,5.322799,46.209664
2016-153,2016-01-14,000001,Vente,215850,5602,,LES FOURNILS,B066,01250,01195,Jasseron,01,,,01195000AE0413,,,,,,,,,,,,,0,1,Maison,100,5,S,sols,,,660,5.323066,46.209694
2016-153,2016-01-14,000001,Vente,215850,,,VILLAGE,B157,01250,01195,Jasseron,01,,,01195000AE0449,,,,,,,,,,,,,0,,,,,S,sols,,,76,5.322875,46.209757
2016-154,2016-01-28,000001,Echange,1500,,,LE BOURG,B004,01190,01305,Pont-de-Vaux,01,,,01305000AK0522,,,,,,,,,,,,,0,,,,,S,sols,,,12,4.933798,46.435258
2016-154,2016-01-28,000001,Echange,1500,5249,,RTE DE FLEURVILLE,0160,01190,01305,Pont-de-Vaux,01,,,01305000AK0540,,,,,,,,,,,,,0,,,,,S,sols,,,19,4.934169,46.435605
2016-154,2016-01-28,000001,Echange,1500,5249,,RTE DE FLEURVILLE,0160,01190,01305,Pont-de-Vaux,01,,,01305000AK0541,,,,,,,,,,,,,0,,,,,S,sols,,,9,4.934056,46.435692
2016-154,2016-01-28,000001,Echange,1500,,,RTE DE FLEURVILLE,0160,01190,01305,Pont-de-Vaux,01,,,01305000AK0544,,,,,,,,,,,,,0,,,,,S,sols,,,1,4.934017,46.435373
2016-154,2016-01-28,000001,Echange,1500,,,LE BOURG,B004,01190,01305,Pont-de-Vaux,01,,,01305000AK0546,,,,,,,,,,,,,0,,,,,S,sols,,,13,4.933923,46.435322
2016-154,2016-01-28,000002,Echange,1500,,,RTE DE FLEURVILLE,0160,01190,01305,Pont-de-Vaux,01,,,01305000AK0548,,,,,,,,,,,,,0,,,,,S,sols,,,10,4.934154,46.435447
2016-154,2016-01-28,000002,Echange,1500,,,RTE DE FLEURVILLE,0160,01190,01305,Pont-de-Vaux,01,,,01305000AK0549,,,,,,,,,,,,,0,,,,,S,sols,,,11,4.934248,46.435498
2016-155,2016-01-20,000001,Vente,120000,,,COURMANGOUX,B045,01370,01127,Courmangoux,01,,,01127000AD0016,,,,,,,,,,,,,0,,,,,P,prés,,,254,5.368812,46.331451
2016-155,2016-01-20,000001,Vente,120000,5102,,COURMANGOUX,B045,01370,01127,Courmangoux,01,,,01127000AD0020,,,,,,,,,,,,,0,1,Maison,50,2,S,sols,,,123,5.368383,46.330994
2016-155,2016-01-20,000001,Vente,120000,,,COURMANGOUX,B045,01370,01127,Courmangoux,01,,,01127000AD0153,,,,,,,,,,,,,0,,,,,J,jardins,POTAG,Jardin potager,126,5.368553,46.331229
2016-156,2016-02-01,000001,Vente,1,,,LES GREFFETS,B132,01440,01451,Viriat,01,,,01451000BT0114,,,,,,,,,,,,,0,,,,,S,sols,,,843,5.190861,46.246636
2016-156,2016-02-01,000001,Vente,1,,,LES GREFFETS,B132,01440,01451,Viriat,01,,,01451000BT0115,,,,,,,,,,,,,0,,,,,S,sols,,,67,5.191298,46.246603
2016-157,2016-01-27,000001,Vente,128000,9001,,RUE HELENE BOUCHER,1850,01000,01053,Bourg-en-Bresse,01,,,01053000BM0425,,,27,,,,,,,,,,1,3,Dépendance,,0,,,,,,5.234012,46.21193
2016-157,2016-01-27,000001,Vente,128000,9001,,RUE HELENE BOUCHER,1850,01000,01053,Bourg-en-Bresse,01,,,01053000BM0425,,,11,,,,,,,,,,1,2,Appartement,48,2,,,,,,5.234012,46.21193
2016-158,2016-02-01,000001,Vente,1,,,LA NEUVE EST,B279,01440,01451,Viriat,01,,,01451000BK0093,,,,,,,,,,,,,0,,,,,S,sols,,,990,5.214238,46.218436
2016-159,2016-02-08,000001,Vente,150,,,LE DRUILLET,B034,01380,01343,Saint-Cyr-sur-Menthon,01,,,01343000ZR0015,,,,,,,,,,,,,0,,,,,E,eaux,FOSSE,Fosse,350,4.93929,46.264393
2016-160,2016-01-29,000001,Vente,12000,,,LES BOCHAYS,B023,01160,01374,Saint-Martin-du-Mont,01,,,01374000ZD0038,,,,,,,,,,,,,0,,,,,P,prés,,,23850,5.361445,46.121564
2016-160,2016-01-29,000001,Vente,12000,,,EN PUITS,B338,01160,01374,Saint-Martin-du-Mont,01,,,01374000ZE0101,,,,,,,,,,,,,0,,,,,P,prés,,,12695,5.341477,46.113119
2016-160,2016-01-29,000001,Vente,12000,,,EN PUITS,B338,01160,01374,Saint-Martin-du-Mont,01,,,01374000ZE0101,,,,,,,,,,,,,0,,,,,P,prés,,,12695,5.341477,46.113119
2016-160,2016-01-29,000001,Vente,12000,,,EN SOUBLERETTE,B363,01160,01374,Saint-Martin-du-Mont,01,,,01374000ZE0114,,,,,,,,,,,,,0,,,,,P,prés,,,6455,5.344824,46.110153
2016-161,2016-01-20,000001,Vente,110000,5057,,LES ETROUBLES,B016,01340,01229,Malafretaz,01,,,01229000AB0063,,,,,,,,,,,,,0,1,Maison,68,2,S,sols,,,500,5.131327,46.329405
2016-161,2016-01-20,000001,Vente,110000,5056,,LES ETROUBLES,B016,01340,01229,Malafretaz,01,,,01229000AB0103,,,,,,,,,,,,,0,1,Maison,57,4,S,sols,,,655,5.131413,46.329336
2016-162,2016-01-29,000001,Vente,25000,4,,QUAI HENRI GROBOZ,1870,01000,01053,Bourg-en-Bresse,01,,,01053000BC0258,,,1,88.04,,,,,,,,,1,3,Dépendance,,0,,,,,,5.230388,46.205127
2016-162,2016-01-29,000001,Vente,25000,4,,QUAI HENRI GROBOZ,1870,01000,01053,Bourg-en-Bresse,01,,,01053000BC0258,,,1,88.04,,,,,,,,,1,3,Dépendance,,0,,,,,,5.230388,46.205127
2016-163,2016-01-29,000001,Vente,35000,4,,QUAI HENRI GROBOZ,1870,01000,01053,Bourg-en-Bresse,01,,,01053000BC0258,,,4,31.97,,,,,,,,,1,2,Appartement,31,1,,,,,,5.230388,46.205127
2016-164,2016-02-01,000001,Vente,27500,4,,QUAI HENRI GROBOZ,1870,01000,01053,Bourg-en-Bresse,01,,,01053000BC0258,,,2,30.98,,,,,,,,,1,2,Appartement,30,2,,,,,,5.230388,46.205127
2016-165,2016-01-14,000001,Vente,3000,,,GRANDES VIGNES,B076,01250,01095,Nivigne et Suran,01,01095,Chavannes-sur-Suran,010950000C0445,,,,,,,,,,,,,0,,,,,BS,taillis sous futaie,,,170,5.44323,46.289063
2016-165,2016-01-14,000001,Vente,3000,,,GRANDES VIGNES,B076,01250,01095,Nivigne et Suran,01,01095,Chavannes-sur-Suran,010950000C0447,,,,,,,,,,,,,0,,,,,BS,taillis sous futaie,,,90,5.442667,46.289143
2016-165,2016-01-14,000001,Vente,3000,,,EN MONT RONFOND,B088,01250,01095,Nivigne et Suran,01,01095,Chavannes-sur-Suran,010950000D0042,,,,,,,,,,,,,0,,,,,L,landes,,,1780,5.440975,46.276879
2016-165,2016-01-14,000001,Vente,3000,,,EN MONT RONFOND,B088,01250,01095,Nivigne et Suran,01,01095,Chavannes-sur-Suran,010950000D0047,,,,,,,,,,,,,0,,,,,L,landes,,,90,5.439603,46.278848
2016-165,2016-01-14,000001,Vente,3000,,,EN MONT RONFOND,B088,01250,01095,Nivigne et Suran,01,01095,Chavannes-sur-Suran,010950000D0048,,,,,,,,,,,,,0,,,,,BS,taillis sous futaie,,,150,5.439518,46.278695
2016-165,2016-01-14,000001,Vente,3000,,,AUX DESERTS,B052,01250,01095,Nivigne et Suran,01,01095,Chavannes-sur-Suran,010950000D0061,,,,,,,,,,,,,0,,,,,BT,taillis simples,,,200,5.437562,46.276982
2016-165,2016-01-14,000001,Vente,3000,,,AUX DESERTS,B052,01250,01095,Nivigne et Suran,01,01095,Chavannes-sur-Suran,010950000D0072,,,,,,,,,,,,,0,,,,,BS,taillis sous futaie,,,850,5.437447,46.27645
2016-165,2016-01-14,000001,Vente,3000,,,CHAVUISSIAT LE PETIT,B026,01250,01095,Nivigne et Suran,01,01095,Chavannes-sur-Suran,010950000D0099,,,,,,,,,,,,,0,,,,,L,landes,,,90,5.438676,46.278581
2016-165,2016-01-14,000001,Vente,3000,,,CHAVUISSIAT LE PETIT,B026,01250,01095,Nivigne et Suran,01,01095,Chavannes-sur-Suran,010950000D0100,,,,,,,,,,,,,0,,,,,L,landes,,,130,5.438703,46.278668
2016-165,2016-01-14,000001,Vente,3000,,,SUR LE CHEMIN CHARETON,B028,01250,01095,Nivigne et Suran,01,01095,Chavannes-sur-Suran,010950000D0158,,,,,,,,,,,,,0,,,,,BT,taillis simples,,,100,5.440573,46.278749
2016-165,2016-01-14,000001,Vente,3000,,,EN BRAS DE FER,B010,01250,01095,Nivigne et Suran,01,01095,Chavannes-sur-Suran,010950000D0212,,,,,,,,,,,,,0,,,,,L,landes,,,450,5.439027,46.282397
2016-165,2016-01-14,000001,Vente,3000,,,EN BRAS DE FER,B010,01250,01095,Nivigne et Suran,01,01095,Chavannes-sur-Suran,010950000D0231,,,,,,,,,,,,,0,,,,,L,landes,,,240,5.438377,46.281211
2016-165,2016-01-14,000001,Vente,3000,,,EN BRAS DE FER,B010,01250,01095,Nivigne et Suran,01,01095,Chavannes-sur-Suran,010950000D0236,,,,,,,,,,,,,0,,,,,BT,taillis simples,,,260,5.438343,46.281045
2016-165,2016-01-14,000001,Vente,3000,,,MONT RONFOND,B089,01250,01095,Nivigne et Suran,01,01095,Chavannes-sur-Suran,010950000D0306,,,,,,,,,,,,,0,,,,,BS,taillis sous futaie,,,575,5.441952,46.275732
2016-165,2016-01-14,000001,Vente,3000,,,MONT RONFOND,B089,01250,01095,Nivigne et Suran,01,01095,Chavannes-sur-Suran,010950000D0331,,,,,,,,,,,,,0,,,,,BT,taillis simples,,,1910,5.442091,46.273654
2016-165,2016-01-14,000001,Vente,3000,,,MONT RONFOND,B089,01250,01095,Nivigne et Suran,01,01095,Chavannes-sur-Suran,010950000D0349,,,,,,,,,,,,,0,,,,,L,landes,,,540,5.440153,46.270598
2016-165,2016-01-14,000001,Vente,3000,,,SUR LE MOUX,B094,01250,01095,Nivigne et Suran,01,01095,Chavannes-sur-Suran,010950000D0382,,,,,,,,,,,,,0,,,,,L,landes,,,800,5.43569,46.269376
2016-165,2016-01-14,000001,Vente,3000,,,SUR LE MOUX,B094,01250,01095,Nivigne et Suran,01,01095,Chavannes-sur-Suran,010950000D0422,,,,,,,,,,,,,0,,,,,BS,taillis sous futaie,,,44,5.436545,46.27224
2016-165,2016-01-14,000001,Vente,3000,,,SUR LE MOUX,B094,01250,01095,Nivigne et Suran,01,01095,Chavannes-sur-Suran,010950000D0431,,,,,,,,,,,,,0,,,,,L,landes,,,700,5.437127,46.273582
2016-165,2016-01-14,000001,Vente,3000,,,SUR LE MOUX,B094,01250,01095,Nivigne et Suran,01,01095,Chavannes-sur-Suran,010950000D0433,,,,,,,,,,,,,0,,,,,BS,taillis sous futaie,,,1510,5.437251,46.273999
2016-165,2016-01-14,000001,Vente,3000,,,SUR LE MOUX,B094,01250,01095,Nivigne et Suran,01,01095,Chavannes-sur-Suran,010950000D0436,,,,,,,,,,,,,0,,,,,BS,taillis sous futaie,,,675,5.436438,46.274233
2016-165,2016-01-14,000001,Vente,3000,,,SUR LE MOUX,B094,01250,01095,Nivigne et Suran,01,01095,Chavannes-sur-Suran,010950000D0444,,,,,,,,,,,,,0,,,,,BS,taillis sous futaie,,,306,5.437066,46.274522
2016-165,2016-01-14,000001,Vente,3000,,,SUR LE MOUX,B094,01250,01095,Nivigne et Suran,01,01095,Chavannes-sur-Suran,010950000D0452,,,,,,,,,,,,,0,,,,,BS,taillis sous futaie,,,550,5.437913,46.275037
2016-165,2016-01-14,000001,Vente,3000,,,SUR LE MOUX,B094,01250,01095,Nivigne et Suran,01,01095,Chavannes-sur-Suran,010950000D0461,,,,,,,,,,,,,0,,,,,BS,taillis sous futaie,,,2240,5.437404,46.275599
2016-165,2016-01-14,000001,Vente,3000,,,PRES DE LA PLANCHE,B114,01250,01095,Nivigne et Suran,01,01095,Chavannes-sur-Suran,01095000ZC0048,,,,,,,,,,,,,0,,,,,P,prés,,,8700,5.431549,46.27883
2016-165,2016-01-14,000001,Vente,3000,,,OUTRE LE PRE,B096,01250,01095,Nivigne et Suran,01,01095,Chavannes-sur-Suran,01095000ZC0322,,,,,,,,,,,,,0,,,,,S,sols,,,153,5.430728,46.28072
2016-165,2016-01-14,000001,Vente,3000,,,CHAMP MARION,B021,01250,01095,Nivigne et Suran,01,01095,Chavannes-sur-Suran,01095000ZD0040,,,,,,,,,,,,,0,,,,,P,prés,,,10370,5.436226,46.274636
2016-166,2016-01-23,000001,Vente,110000,,,LA COURBATIERE,B043,01370,01127,Courmangoux,01,,,01127000AB0256,,,,,,,,,,,,,0,,,,,P,prés,,,214,5.364524,46.335753
2016-166,2016-01-23,000001,Vente,110000,,,LA COURBATIERE,B043,01370,01127,Courmangoux,01,,,01127000AB0257,,,,,,,,,,,,,0,,,,,P,prés,,,995,,
2016-166,2016-01-23,000001,Vente,110000,5082,,LA COURBATIERE,B043,01370,01127,Courmangoux,01,,,01127000AB0259,,,,,,,,,,,,,0,1,Maison,72,3,S,sols,,,692,5.365071,46.335775
2016-166,2016-01-23,000001,Vente,110000,,,LA COURBATIERE,B043,01370,01127,Courmangoux,01,,,01127000AB0260,,,,,,,,,,,,,0,,,,,P,prés,,,228,5.365192,46.335927
2016-167,2016-01-25,000001,Vente,50865,,,AUX BOIS AMIS,B009,01190,01284,Ozan,01,,,01284000ZE0551,,,,,,,,,,,,,0,,,,,AB,terrains a bâtir,,,4423,4.911178,46.385703
2016-168,2016-01-14,000001,Vente,42360,5094,,LE VILLAGE,B286,01370,01426,Val-Revermont,01,,,014260000F0303,,,,,,,,,,,,,0,1,Maison,70,2,S,sols,,,215,5.370269,46.271491
2016-169,2016-01-30,000001,Vente,182000,86,,IMP DES BAILLOUX,0060,01380,01025,Bâgé-Dommartin,01,01025,Bâgé-la-Ville,010250000C0201,,,,,,,,,,,,,0,1,Maison,52,0,S,sols,,,1604,4.933528,46.3487
2016-169,2016-01-30,000001,Vente,182000,86,,IMP DES BAILLOUX,0060,01380,01025,Bâgé-Dommartin,01,01025,Bâgé-la-Ville,010250000C0201,,,,,,,,,,,,,0,1,Maison,100,5,S,sols,,,1604,4.933528,46.3487
2016-169,2016-01-30,000001,Vente,182000,,,LES BAILLOUX,B005,01380,01025,Bâgé-Dommartin,01,01025,Bâgé-la-Ville,010250000C1693,,,,,,,,,,,,,0,,,,,P,prés,,,496,4.93383,46.348562
2016-169,2016-01-30,000001,Vente,182000,,,LES BAILLOUX,B005,01380,01025,Bâgé-Dommartin,01,01025,Bâgé-la-Ville,010250000C1695,,,,,,,,,,,,,0,,,,,T,terres,,,213,4.933642,46.348505
2016-170,2016-01-14,000001,Vente,166450,,,COTTEY HAMEAU,B020,01290,01042,Bey,01,,,010420000B0562,,,,,,,,,,,,,0,,,,,AG,terrains d'agrément,,,899,4.842094,46.2192
2016-170,2016-01-14,000001,Vente,166450,,,COTTEY HAMEAU,B020,01290,01042,Bey,01,,,010420000B0564,,,,,,,,,,,,,0,,,,,T,terres,,,400,4.842108,46.218985
2016-170,2016-01-14,000001,Vente,166450,52,,IMP DU VALOSET,0120,01290,01042,Bey,01,,,010420000B0567,,,,,,,,,,,,,0,1,Maison,180,6,S,sols,,,807,4.842239,46.219394
2016-171,2016-01-12,000001,Vente,150000,5128,,LA CROISEE,B027,01560,01128,Courtes,01,,,01128000WA0187,,,,,,,,,,,,,0,1,Maison,105,5,J,jardins,,,733,5.102622,46.468531
2016-171,2016-01-12,000001,Vente,150000,5128,,LA CROISEE,B027,01560,01128,Courtes,01,,,01128000WA0187,,,,,,,,,,,,,0,1,Maison,105,5,S,sols,,,600,5.102622,46.468531
2016-172,2016-01-18,000001,Vente,47000,,,LA LECHERE,B061,01560,01433,Vernoux,01,,,01433000WC0158,,,,,,,,,,,,,0,,,,,T,terres,,,748,5.118413,46.480796
2016-172,2016-01-18,000001,Vente,47000,,,LA LECHERE,B061,01560,01433,Vernoux,01,,,01433000WC0158,,,,,,,,,,,,,0,,,,,S,sols,,,500,5.118413,46.480796
2016-172,2016-01-18,000001,Vente,47000,,,LA LECHERE,B061,01560,01433,Vernoux,01,,,01433000WC0160,,,,,,,,,,,,,0,,,,,J,jardins,,,133,5.118612,46.480997
2016-172,2016-01-18,000001,Vente,47000,690,,RTE DES ESSARTS,0065,01560,01433,Vernoux,01,,,01433000WC0161,,,,,,,,,,,,,0,1,Maison,75,2,S,sols,,,2150,5.118401,46.48102
2016-173,2016-01-21,000001,Vente,145000,210,,IMP DES CHENES,0035,01380,01355,Saint-Genis-sur-Menthon,01,,,01355000ZA0088,,,,,,,,,,,,,0,1,Maison,86,4,S,sols,,,2665,5.005026,46.291408
2016-174,2016-01-15,000001,Vente,700,,,L AUBEPIN,B004,01270,01147,Domsure,01,,,01147000ZT0026,,,,,,,,,,,,,0,,,,,T,terres,,,1387,5.278596,46.417895
2016-174,2016-01-15,000001,Vente,700,,,L AUBEPIN,B004,01270,01147,Domsure,01,,,01147000ZT0026,,,,,,,,,,,,,0,,,,,T,terres,,,2773,5.278596,46.417895
2016-175,2016-01-29,000001,Vente,399090,5009,,LE CHANAY,B008,01290,01334,Saint-André-d'Huiriat,01,,,013340000A0069,,,,,,,,,,,,,0,1,Maison,217,7,S,sols,,,2630,4.911102,46.226536
2016-175,2016-01-29,000001,Vente,399090,,,LE CHANAY,B008,01290,01334,Saint-André-d'Huiriat,01,,,013340000A0892,,,,,,,,,,,,,0,,,,,P,prés,,,1523,4.91124,46.22698
2016-175,2016-01-29,000001,Vente,399090,,,LE CHANAY,B008,01290,01334,Saint-André-d'Huiriat,01,,,013340000A0894,,,,,,,,,,,,,0,,,,,T,terres,,,1474,4.910816,46.226873
2016-176,2016-01-15,000001,Vente,170000,96,,RUE PREVERT,0397,01000,01344,Saint-Denis-lès-Bourg,01,,,01344000AO0050,,,,,,,,,,,,,0,1,Maison,78,3,S,sols,,,685,5.196575,46.201844
2016-177,2016-01-21,000001,Vente,110000,178,,RUE DE LA CHARPINE,0100,01000,01344,Saint-Denis-lès-Bourg,01,,,01344000AI0043,,,,,,,,,,,,,0,1,Maison,53,3,S,sols,,,394,5.202708,46.199496
2016-178,2016-01-14,000001,Vente,83142,11,,COUR DES MIRACLES,B049,01340,01266,Montrevel-en-Bresse,01,,,01266000AC0076,,,5,32.75,9,,,,,,,,2,2,Appartement,32,3,,,,,,5.129691,46.337457
2016-179,2016-02-01,000001,Vente,1,,,LA NEUVE EST,B279,01440,01451,Viriat,01,,,01451000BK0076,,,,,,,,,,,,,0,,,,,P,prés,,,1668,5.214259,46.217457
2016-179,2016-02-01,000001,Vente,1,,,LA NEUVE EST,B279,01440,01451,Viriat,01,,,01451000BK0076,,,,,,,,,,,,,0,,,,,P,prés,,,1668,5.214259,46.217457
2016-180,2016-01-29,000001,Vente,154000,326,,RUE DU STADE,0215,01290,01179,Grièges,01,,,01179000AB0564,,,,,,,,,,,,,0,1,Maison,127,4,S,sols,,,1235,4.854627,46.256973
2016-181,2016-02-04,000001,Vente,85000,129,,RTE DU JURA,0120,01270,01029,Beaupont,01,,,01029000ZH0361,,,,,,,,,,,,,0,1,Maison,92,3,S,sols,,,1267,5.271031,46.412395
2016-181,2016-02-04,000001,Vente,85000,,,BOIS BACCHUS,B007,01270,01029,Beaupont,01,,,01029000ZH0364,,,,,,,,,,,,,0,,,,,P,prés,,,350,5.270651,46.412323
2016-182,2016-02-04,000001,Vente,15000,,,LE PIERRET,B258,01851,01232,Marboz,01,,,01232000WR0115,,,,,,,,,,,,,0,,,,,BS,taillis sous futaie,,,26085,5.230602,46.321292
2016-183,2016-02-10,000001,Vente,245000,396,,CHE DES CHANEES,0011,01340,01024,Attignat,01,,,01024000AA0003,,,,,,,,,,,,,0,4,Local industriel. commercial ou assimilé,58,0,S,sols,,,1148,5.160425,46.294475
2016-183,2016-02-10,000001,Vente,245000,396,,CHE DES CHANEES,0011,01340,01024,Attignat,01,,,01024000AA0003,,,,,,,,,,,,,0,1,Maison,121,5,AG,terrains d'agrément,,,1000,5.160425,46.294475
2016-183,2016-02-10,000001,Vente,245000,396,,CHE DES CHANEES,0011,01340,01024,Attignat,01,,,01024000AA0003,,,,,,,,,,,,,0,4,Local industriel. commercial ou assimilé,58,0,AG,terrains d'agrément,,,1000,5.160425,46.294475
2016-183,2016-02-10,000001,Vente,245000,396,,CHE DES CHANEES,0011,01340,01024,Attignat,01,,,01024000AA0003,,,,,,,,,,,,,0,1,Maison,121,5,S,sols,,,1148,5.160425,46.294475
2016-184,2016-02-08,000001,Vente,223500,5733,,RTE DE MACON,0125,01290,01179,Grièges,01,,,01179000AB0583,,,,,,,,,,,,,0,1,Maison,144,5,S,sols,,,856,4.850516,46.258716
2016-184,2016-02-08,000001,Vente,223500,,,GRAND MORTIER,B062,01290,01179,Grièges,01,,,01179000AB0588,,,,,,,,,,,,,0,,,,,AG,terrains d'agrément,,,870,4.850756,46.259033
2016-185,2016-02-01,000002,Vente,500000,4,A,RUE ANDRE CHARLES BOULE,0013,01000,01053,Bourg-en-Bresse,01,,,01053000BO0683,,,,,,,,,,,,,0,4,Local industriel. commercial ou assimilé,354,0,S,sols,,,3904,5.217968,46.217695
2016-185,2016-02-01,000002,Vente,500000,4,A,RUE ANDRE CHARLES BOULE,0013,01000,01053,Bourg-en-Bresse,01,,,01053000BO0683,,,,,,,,,,,,,0,4,Local industriel. commercial ou assimilé,686,0,S,sols,,,3904,5.217968,46.217695
2016-185,2016-02-01,000002,Vente,500000,4,A,RUE ANDRE CHARLES BOULE,0013,01000,01053,Bourg-en-Bresse,01,,,01053000BO0683,,,,,,,,,,,,,0,4,Local industriel. commercial ou assimilé,2200,0,S,sols,,,3904,5.217968,46.217695
2016-185,2016-02-01,000002,Vente,500000,4,A,RUE ANDRE CHARLES BOULE,0013,01000,01053,Bourg-en-Bresse,01,,,01053000BO0683,,,,,,,,,,,,,0,4,Local industriel. commercial ou assimilé,602,0,S,sols,,,3904,5.217968,46.217695
2016-185,2016-02-01,000002,Vente,500000,4,A,RUE ANDRE CHARLES BOULE,0013,01000,01053,Bourg-en-Bresse,01,,,01053000BO0683,,,,,,,,,,,,,0,4,Local industriel. commercial ou assimilé,1535,0,S,sols,,,3904,5.217968,46.217695
2016-185,2016-02-01,000002,Vente,500000,4,A,RUE ANDRE CHARLES BOULE,0013,01000,01053,Bourg-en-Bresse,01,,,01053000BO0683,,,,,,,,,,,,,0,4,Local industriel. commercial ou assimilé,1402,0,S,sols,,,3904,5.217968,46.217695
2016-186,2016-01-18,000001,Vente,177500,3636,,RTE DE BOURG,0035,01560,01124,Cormoz,01,,,011240000C0568,,,,,,,,,,,,,0,1,Maison,132,5,J,jardins,,,1360,5.23676,46.416263
2016-186,2016-01-18,000001,Vente,177500,3636,,RTE DE BOURG,0035,01560,01124,Cormoz,01,,,011240000C0568,,,,,,,,,,,,,0,1,Maison,132,5,S,sols,,,780,5.23676,46.416263
2016-187,2016-01-08,000001,Vente,215000,83,,RUE TONY REVILLON,0560,01750,01370,Saint-Laurent-sur-Saône,01,,,013700000A0254,,,,,,,,,,,,,0,1,Maison,85,3,S,sols,,,121,4.840699,46.30446
2016-188,2016-01-29,000001,Vente,312750,5473,,LE DRUILLET,B034,01380,01343,Saint-Cyr-sur-Menthon,01,,,01343000ZR0165,,,,,,,,,,,,,0,1,Maison,178,6,S,sols,,,1500,4.944748,46.263437
2016-188,2016-01-29,000001,Vente,312750,5473,,LE DRUILLET,B034,01380,01343,Saint-Cyr-sur-Menthon,01,,,01343000ZR0165,,,,,,,,,,,,,0,1,Maison,178,6,AG,terrains d'agrément,,,1192,4.944748,46.263437
2016-188,2016-01-29,000001,Vente,312750,,,LE DRUILLET,B034,01380,01343,Saint-Cyr-sur-Menthon,01,,,01343000ZR0174,,,,,,,,,,,,,0,,,,,AB,terrains a bâtir,,,1046,4.944087,46.263517
2016-189,2016-02-02,000001,Vente,149000,6,B,RTE DE BOURG,0015,01340,01266,Montrevel-en-Bresse,01,,,01266000AD0331,,,,,,,,,,,,,0,1,Maison,80,3,S,sols,,,143,5.12896,46.335622
2016-190,2016-01-27,000001,Vente,68000,,,MACHARD,B029,01340,01266,Montrevel-en-Bresse,01,,,012660000A2363,,,,,,,,,,,,,0,,,,,AB,terrains a bâtir,,,1005,5.105176,46.33396
2016-191,2016-01-29,000001,Vente,142000,5082,,LA GUINGUETTE,B019,01340,01229,Malafretaz,01,,,01229000AA0138,,,,,,,,,,,,,0,1,Maison,110,3,S,sols,,,362,5.131996,46.332034
2016-191,2016-01-29,000001,Vente,142000,5082,,LA GUINGUETTE,B019,01340,01229,Malafretaz,01,,,01229000AA0138,,,,,,,,,,,,,0,1,Maison,52,3,S,sols,,,362,5.131996,46.332034
2016-192,2016-01-28,000001,Vente,100000,27,,ALL DES PIVERTS,3127,01000,01053,Bourg-en-Bresse,01,,,01053000CW0268,,,118,,,,,,,,,,1,2,Appartement,56,2,,,,,,5.245483,46.186392
2016-192,2016-01-28,000001,Vente,100000,27,,ALL DES PIVERTS,3127,01000,01053,Bourg-en-Bresse,01,,,01053000CW0268,,,129,,,,,,,,,,1,3,Dépendance,,0,,,,,,5.245483,46.186392
2016-192,2016-01-28,000001,Vente,100000,27,,ALL DES PIVERTS,3127,01000,01053,Bourg-en-Bresse,01,,,01053000CW0268,,,111,,,,,,,,,,1,2,Appartement,56,2,,,,,,5.245483,46.186392
2016-193,2016-01-16,000001,Vente,212000,11,,PL LEGRAND,0280,01190,01305,Pont-de-Vaux,01,,,01305000AK0157,,,,,,,,,,,,,0,2,Appartement,96,3,S,sols,,,184,4.938726,46.428812
2016-193,2016-01-16,000001,Vente,212000,11,,PL LEGRAND,0280,01190,01305,Pont-de-Vaux,01,,,01305000AK0157,,,,,,,,,,,,,0,3,Dépendance,,0,S,sols,,,184,4.938726,46.428812
2016-193,2016-01-16,000001,Vente,212000,11,,PL LEGRAND,0280,01190,01305,Pont-de-Vaux,01,,,01305000AK0157,,,,,,,,,,,,,0,4,Local industriel. commercial ou assimilé,65,0,S,sols,,,184,4.938726,46.428812
2016-193,2016-01-16,000001,Vente,212000,11,,PL LEGRAND,0280,01190,01305,Pont-de-Vaux,01,,,01305000AK0157,,,,,,,,,,,,,0,2,Appartement,70,4,S,sols,,,184,4.938726,46.428812
2016-193,2016-01-16,000001,Vente,212000,11,,PL LEGRAND,0280,01190,01305,Pont-de-Vaux,01,,,01305000AK0157,,,,,,,,,,,,,0,3,Dépendance,,0,S,sols,,,184,4.938726,46.428812
2016-193,2016-01-16,000001,Vente,212000,11,,PL LEGRAND,0280,01190,01305,Pont-de-Vaux,01,,,01305000AK0157,,,,,,,,,,,,,0,2,Appartement,70,4,S,sols,,,184,4.938726,46.428812
2016-194,2016-01-15,000002,Vente,38000,,,LES PLATIERES,B103,01560,01388,Saint-Trivier-de-Courtes,01,,,013880000B0799,,,,,,,,,,,,,0,,,,,AB,terrains a bâtir,,,600,5.070002,46.458916
2016-194,2016-01-15,000002,Vente,38000,,,LES PLATIERES,B103,01560,01388,Saint-Trivier-de-Courtes,01,,,013880000B0800,,,,,,,,,,,,,0,,,,,AB,terrains a bâtir,,,486,5.069858,46.458996
2016-195,2016-01-27,000001,Vente,90000,4,,PL DES LICES,2290,01000,01053,Bourg-en-Bresse,01,,,01053000AD0663,,,45,,66,46.87,,,,,,,2,2,Appartement,49,2,,,,,,5.223812,46.206162
2016-196,2016-01-28,000001,Vente,75000,82,,AV AMEDEE MERCIER,0225,01000,01053,Bourg-en-Bresse,01,,,01053000CL0101,,,138,,151,79.73,,,,,,,2,2,Appartement,80,4,,,,,,5.246947,46.201672
2016-197,2016-01-27,000001,Vente,205000,6749,,CHAMP DE VIRIAT,B058,01440,01451,Viriat,01,,,01451000AR0204,,,,,,,,,,,,,0,1,Maison,116,5,S,sols,,,816,5.219544,46.246075
2016-198,2016-01-25,000001,Vente,89000,6,,RUE DE CUIRON,1070,01000,01053,Bourg-en-Bresse,01,,,01053000AV0044,,,2,,47,75.7,68,,,,,,3,2,Appartement,76,4,,,,,,5.23862,46.192298
2016-199,2016-01-26,000001,Vente,125000,808,,RTE D'ATTIGNAT,0010,01310,01375,Saint-Martin-le-Châtel,01,,,01375000AN0290,,,,,,,,,,,,,0,3,Dépendance,,0,J,jardins,,,859,5.138756,46.281996
2016-199,2016-01-26,000001,Vente,125000,808,,RTE D'ATTIGNAT,0010,01310,01375,Saint-Martin-le-Châtel,01,,,01375000AN0290,,,,,,,,,,,,,0,1,Maison,90,4,S,sols,,,1191,5.138756,46.281996
2016-199,2016-01-26,000001,Vente,125000,808,,RTE D'ATTIGNAT,0010,01310,01375,Saint-Martin-le-Châtel,01,,,01375000AN0290,,,,,,,,,,,,,0,3,Dépendance,,0,AG,terrains d'agrément,JARD,Jardin d'agrément,2704,5.138756,46.281996
2016-199,2016-01-26,000001,Vente,125000,808,,RTE D'ATTIGNAT,0010,01310,01375,Saint-Martin-le-Châtel,01,,,01375000AN0290,,,,,,,,,,,,,0,1,Maison,90,4,J,jardins,,,859,5.138756,46.281996
2016-199,2016-01-26,000001,Vente,125000,808,,RTE D'ATTIGNAT,0010,01310,01375,Saint-Martin-le-Châtel,01,,,01375000AN0290,,,,,,,,,,,,,0,1,Maison,90,4,AG,terrains d'agrément,JARD,Jardin d'agrément,2704,5.138756,46.281996
2016-199,2016-01-26,000001,Vente,125000,808,,RTE D'ATTIGNAT,0010,01310,01375,Saint-Martin-le-Châtel,01,,,01375000AN0290,,,,,,,,,,,,,0,3,Dépendance,,0,S,sols,,,1191,5.138756,46.281996
2016-200,2016-01-22,000001,Vente,7000,,,RIPPE DU LOUP,B136,01310,01301,Polliat,01,,,013010000A0700,,,,,,,,,,,,,0,,,,,BT,taillis simples,,,3620,5.159215,46.253484
2016-200,2016-01-22,000001,Vente,7000,,,GRANDE RIPPE,B069,01310,01301,Polliat,01,,,013010000A0960,,,,,,,,,,,,,0,,,,,L,landes,,,8400,5.159822,46.246607
2016-200,2016-01-22,000001,Vente,7000,,,GRANDE RIPPE,B069,01310,01301,Polliat,01,,,013010000A0963,,,,,,,,,,,,,0,,,,,BS,taillis sous futaie,,,1110,5.159253,46.2455
2016-200,2016-01-22,000001,Vente,7000,,,LOYASSE,B082,01310,01301,Polliat,01,,,013010000B0233,,,,,,,,,,,,,0,,,,,BS,taillis sous futaie,,,5135,5.151097,46.230095
2016-201,2016-01-25,000001,Vente,92000,11,,BD DE L HIPPODROME,1890,01000,01053,Bourg-en-Bresse,01,,,01053000AV0205,,,12,,,,,,,,,,1,3,Dépendance,,0,,,,,,5.235892,46.190844
2016-201,2016-01-25,000001,Vente,92000,11,,BD DE L HIPPODROME,1890,01000,01053,Bourg-en-Bresse,01,,,01053000AV0205,,,3,,35,67.7,,,,,,,2,2,Appartement,67,2,,,,,,5.235892,46.190844
2016-202,2016-01-27,000001,Vente,140000,10,,RUE DES ERABLES,0129,01960,01289,Péronnas,01,,,01289000AP0106,,,,,,,,,,,,,0,1,Maison,70,4,S,sols,,,696,5.206668,46.179452
2016-202,2016-01-27,000001,Vente,140000,,,LES GASSES,B016,01960,01289,Péronnas,01,,,01289000AP0112,,,,,,,,,,,,,0,,,,,S,sols,,,6231,5.205863,46.179781
2016-203,2016-02-04,000001,Vente,100000,3,,BD MAL LECLERC,2540,01000,01053,Bourg-en-Bresse,01,,,01053000AD0005,,,11,,33,72.35,,,,,,,2,2,Appartement,74,4,,,,,,5.220576,46.207311
2016-203,2016-02-04,000001,Vente,100000,3,,BD MAL LECLERC,2540,01000,01053,Bourg-en-Bresse,01,,,01053000AD0005,,,19,,,,,,,,,,1,3,Dépendance,,0,,,,,,5.220576,46.207311
2016-204,2016-01-27,000001,Vente,190000,305,,CHE DE CORVANGEL,0120,01310,01375,Saint-Martin-le-Châtel,01,,,01375000AC0194,,,,,,,,,,,,,0,1,Maison,134,4,S,sols,,,4000,5.100628,46.294739
2016-205,2016-01-27,000001,Vente,84000,20,,RUE BOURGMAYER,0570,01000,01053,Bourg-en-Bresse,01,,,01053000AD0650,,,20,,38,,,,,,,,2,2,Appartement,50,2,,,,,,5.222963,46.205629
2016-206,2016-01-27,000001,Vente,40600,5210,,BEL AIR,B011,01160,01273,Neuville-sur-Ain,01,,,01273000AD0095,,,,,,,,,,,,,0,1,Maison,60,2,S,sols,,,182,5.372554,46.077116
2016-207,2016-01-21,000001,Vente,217800,5360,,CHANNELLES,B034,01560,01124,Cormoz,01,,,01124000ZL0122,,,,,,,,,,,,,0,1,Maison,120,6,S,sols,,,500,5.240674,46.425876
2016-207,2016-01-21,000001,Vente,217800,5360,,CHANNELLES,B034,01560,01124,Cormoz,01,,,01124000ZL0122,,,,,,,,,,,,,0,1,Maison,120,6,AG,terrains d'agrément,JARD,Jardin d'agrément,1000,5.240674,46.425876
2016-208,2016-01-27,000001,Vente,150000,423,,GR GRANDE RUE,0019,01340,01024,Attignat,01,,,01024000AB0053,,,,,,,,,,,,,0,1,Maison,81,2,AG,terrains d'agrément,,,1444,5.15935,46.288456
2016-208,2016-01-27,000001,Vente,150000,423,,GR GRANDE RUE,0019,01340,01024,Attignat,01,,,01024000AB0053,,,,,,,,,,,,,0,1,Maison,81,2,S,sols,,,500,5.15935,46.288456
2016-209,2016-02-10,000001,Vente,110000,590,,CHE DU CHATELET,0300,01340,01024,Attignat,01,,,010240000A0031,,,,,,,,,,,,,0,1,Maison,60,2,S,sols,,,1849,5.149466,46.293662
2016-209,2016-02-10,000001,Vente,110000,,,LE BLETONAY,B009,01340,01024,Attignat,01,,,010240000A0032,,,,,,,,,,,,,0,,,,,J,jardins,,,340,5.149476,46.293956
2016-209,2016-02-10,000001,Vente,110000,,,LE BLETONAY,B009,01340,01024,Attignat,01,,,010240000A2146,,,,,,,,,,,,,0,,,,,T,terres,,,461,5.149085,46.293936
2016-209,2016-02-10,000001,Vente,110000,,,LE BLETONAY,B009,01340,01024,Attignat,01,,,010240000A2147,,,,,,,,,,,,,0,,,,,T,terres,,,309,5.148817,46.293971
2016-209,2016-02-10,000001,Vente,110000,,,LE BLETONAY,B009,01340,01024,Attignat,01,,,010240000A2149,,,,,,,,,,,,,0,,,,,T,terres,,,487,5.149255,46.292522
2016-209,2016-02-10,000001,Vente,110000,,,TERRE DU FORT,B109,01340,01024,Attignat,01,,,010240000A2151,,,,,,,,,,,,,0,,,,,P,prés,,,35,5.149492,46.293333
2016-209,2016-02-10,000001,Vente,110000,,,LE BLETONAY,B009,01340,01024,Attignat,01,,,010240000A2152,,,,,,,,,,,,,0,,,,,P,prés,,,4468,5.149163,46.293391
2016-210,2016-01-20,000001,Vente,70000,41,,BD DE BROU,0620,01000,01053,Bourg-en-Bresse,01,,,01053000BC0456,,,311,,,,,,,,,,1,3,Dépendance,,0,,,,,,5.23093,46.203716
2016-210,2016-01-20,000001,Vente,70000,41,,BD DE BROU,0620,01000,01053,Bourg-en-Bresse,01,,,01053000BC0456,,,12,39.63,32,,,,,,,,2,2,Appartement,39,2,,,,,,5.23093,46.203716
2016-211,2016-02-12,000001,Vente,1336.28,,,PETIT MONTATIN,B022,01340,01130,Bresse Vallons,01,01130,Cras-sur-Reyssouze,011300000C0690,,,,,,,,,,,,,0,,,,,T,terres,,,3376,5.156027,46.311901
2016-211,2016-02-12,000001,Vente,1336.28,,,PETIT MONTATIN,B022,01340,01130,Bresse Vallons,01,01130,Cras-sur-Reyssouze,011300000C0691,,,,,,,,,,,,,0,,,,,T,terres,,,1148,5.156331,46.311462
2016-211,2016-02-12,000001,Vente,1336.28,,,PETIT MONTATIN,B022,01340,01130,Bresse Vallons,01,01130,Cras-sur-Reyssouze,011300000C0692,,,,,,,,,,,,,0,,,,,T,terres,,,1550,5.156457,46.311337
2016-212,2016-02-12,000001,Vente,1045.88,,,PETIT MONTATIN,B022,01340,01130,Bresse Vallons,01,01130,Cras-sur-Reyssouze,011300000C0693,,,,,,,,,,,,,0,,,,,T,terres,,,2780,5.156765,46.31119
2016-212,2016-02-12,000001,Vente,1045.88,,,PETIT MONTATIN,B022,01340,01130,Bresse Vallons,01,01130,Cras-sur-Reyssouze,011300000C0694,,,,,,,,,,,,,0,,,,,T,terres,,,1974,5.156637,46.310934
2016-213,2016-01-20,000001,Vente,217520,6,,IMP DES AUBEPINES,0003,01750,01320,Replonges,01,,,013200000E2728,,,,,,,,,,,,,0,1,Maison,127,5,S,sols,,,1338,,
2016-214,2016-01-22,000001,Vente,115000,5,,RUE DE L EST,1430,01000,01053,Bourg-en-Bresse,01,,,01053000AX0258,,,17,,,,,,,,,,1,3,Dépendance,,0,,,,,,5.241339,46.193661
2016-214,2016-01-22,000001,Vente,115000,5,,RUE DE L EST,1430,01000,01053,Bourg-en-Bresse,01,,,01053000AX0258,,,21,67.18,,,,,,,,,1,2,Appartement,69,3,,,,,,5.241339,46.193661
2016-214,2016-01-22,000001,Vente,115000,5,,RUE DE L EST,1430,01000,01053,Bourg-en-Bresse,01,,,01053000AX0258,,,17,,,,,,,,,,1,3,Dépendance,,0,,,,,,5.241339,46.193661
2016-215,2016-01-21,000001,Vente,70000,,,EN LUCIAT,B176,01750,01320,Replonges,01,,,013200000D4291,,,,,,,,,,,,,0,,,,,AB,terrains a bâtir,,,981,,
2016-215,2016-01-21,000001,Vente,70000,,,EN LUCIAT,B176,01750,01320,Replonges,01,,,013200000D4292,,,,,,,,,,,,,0,,,,,AG,terrains d'agrément,,,89,,
2016-215,2016-01-21,000001,Vente,70000,,,EN LUCIAT,B176,01750,01320,Replonges,01,,,013200000D4294,,,,,,,,,,,,,0,,,,,S,sols,,,35,,
2016-215,2016-01-21,000001,Vente,70000,,,EN LUCIAT,B176,01750,01320,Replonges,01,,,013200000D4300,,,,,,,,,,,,,0,,,,,AB,terrains a bâtir,,,60,,
2016-216,2016-01-28,000001,Vente,110000,515,,QUAI BOUCHACOURT,0060,01750,01370,Saint-Laurent-sur-Saône,01,,,013700000A0491,,,40,76.59,,,,,,,,,1,2,Appartement,76,4,,,,,,4.841338,46.309466
2016-216,2016-01-28,000001,Vente,110000,515,,QUAI BOUCHACOURT,0060,01750,01370,Saint-Laurent-sur-Saône,01,,,013700000A0491,,,17,,,,,,,,,,1,3,Dépendance,,0,,,,,,4.841338,46.309466
2016-217,2016-02-11,000001,Vente,145000,382,,CHE DES SARDIERES,3500,01000,01053,Bourg-en-Bresse,01,,,01053000BX0237,,,,,,,,,,,,,0,1,Maison,86,4,S,sols,,,167,5.253287,46.212978
2016-218,2016-01-28,000001,Vente,160000,5222,,LES MILLETS,B098,01570,01231,Manziat,01,,,01231000AC0120,,,,,,,,,,,,,0,1,Maison,74,3,S,sols,,,2213,4.906047,46.362651
2016-219,2016-02-01,000001,Vente,5578,,,CHAPPELAN,B033,01340,01024,Attignat,01,,,010240000A0814,,,,,,,,,,,,,0,,,,,BS,taillis sous futaie,,,1425,5.161846,46.258255
2016-219,2016-02-01,000001,Vente,5578,,,CHAPPELAN,B033,01340,01024,Attignat,01,,,010240000A0817,,,,,,,,,,,,,0,,,,,BS,taillis sous futaie,,,7986,5.163118,46.259518
2016-220,2016-01-27,000001,Vente,4217.6,,,CHENAVAL,B036,01250,01195,Jasseron,01,,,011950000C1396,,,,,,,,,,,,,0,,,,,P,prés,,,10575,5.324641,46.197735
2016-220,2016-01-27,000001,Vente,4217.6,,,CHENAVAL,B036,01250,01195,Jasseron,01,,,011950000C1404,,,,,,,,,,,,,0,,,,,BS,taillis sous futaie,,,643,5.3262,46.19761
2016-220,2016-01-27,000001,Vente,4217.6,,,CHENAVAL,B036,01250,01195,Jasseron,01,,,011950000C1406,,,,,,,,,,,,,0,,,,,BS,taillis sous futaie,,,1962,5.326231,46.197239
2016-221,2016-02-04,000001,Vente,100000,9,,RUE DU CORDIER,0990,01000,01053,Bourg-en-Bresse,01,,,01053000BD0278,,,208,,,,,,,,,,1,3,Dépendance,,0,,,,,,5.237641,46.204412
2016-221,2016-02-04,000001,Vente,100000,9,,RUE DU CORDIER,0990,01000,01053,Bourg-en-Bresse,01,,,01053000BD0278,,,131,16.37,,,,,,,,,1,2,Appartement,17,1,,,,,,5.237641,46.204412
2016-221,2016-02-04,000001,Vente,100000,9,,RUE DU CORDIER,0990,01000,01053,Bourg-en-Bresse,01,,,01053000BD0278,,,129,16.53,,,,,,,,,1,2,Appartement,17,1,,,,,,5.237641,46.204412
2016-221,2016-02-04,000001,Vente,100000,9,,RUE DU CORDIER,0990,01000,01053,Bourg-en-Bresse,01,,,01053000BD0278,,,130,16.27,,,,,,,,,1,2,Appartement,17,1,,,,,,5.237641,46.204412
2016-221,2016-02-04,000001,Vente,100000,9,,RUE DU CORDIER,0990,01000,01053,Bourg-en-Bresse,01,,,01053000BD0278,,,209,,,,,,,,,,1,3,Dépendance,,0,,,,,,5.237641,46.204412
2016-221,2016-02-04,000001,Vente,100000,9,,RUE DU CORDIER,0990,01000,01053,Bourg-en-Bresse,01,,,01053000BD0278,,,207,,,,,,,,,,1,3,Dépendance,,0,,,,,,5.237641,46.204412
2016-222,2016-01-26,000002,Vente,36000,,,LES RUTIS,B129,01250,01195,Jasseron,01,,,011950000D1035,,,,,,,,,,,,,0,,,,,S,sols,,,324,5.318188,46.211275
2016-222,2016-01-26,000002,Vente,36000,,,LES RUTIS,B129,01250,01195,Jasseron,01,,,011950000D1036,,,,,,,,,,,,,0,,,,,S,sols,,,181,5.318216,46.211461
2016-223,2016-01-29,000001,Vente,73000,5185,,LA VERPILLERE,B218,01190,01337,Saint-Bénigne,01,,,01337000ZL0239,,,,,,,,,,,,,0,1,Maison,88,4,S,sols,,,648,4.948788,46.442901
2016-224,2016-01-28,000001,Vente,294500,5915,,EN MASSON,B169,01370,01426,Val-Revermont,01,,,01426000ZN0080,,,,,,,,,,,,,0,3,Dépendance,,0,S,sols,,,1838,5.338393,46.267289
2016-224,2016-01-28,000001,Vente,294500,5915,,EN MASSON,B169,01370,01426,Val-Revermont,01,,,01426000ZN0080,,,,,,,,,,,,,0,1,Maison,124,4,S,sols,,,1838,5.338393,46.267289
2016-224,2016-01-28,000001,Vente,294500,5915,,EN MASSON,B169,01370,01426,Val-Revermont,01,,,01426000ZN0080,,,,,,,,,,,,,0,3,Dépendance,,0,P,prés,,,2862,5.338393,46.267289
2016-224,2016-01-28,000001,Vente,294500,5915,,EN MASSON,B169,01370,01426,Val-Revermont,01,,,01426000ZN0080,,,,,,,,,,,,,0,1,Maison,124,4,P,prés,,,2862,5.338393,46.267289
2016-225,2016-01-29,000001,Vente,168000,15,,ALL DE LA CEDRAIE,0682,01000,01053,Bourg-en-Bresse,01,,,01053000CS0281,,,,,,,,,,,,,0,1,Maison,87,4,S,sols,,,249,5.240358,46.190865
2016-225,2016-01-29,000001,Vente,168000,,,ALL DE LA CEDRAIE,0682,01000,01053,Bourg-en-Bresse,01,,,01053000CS0292,,,,,,,,,,,,,0,,,,,S,sols,,,989,5.239897,46.190665
2016-225,2016-01-29,000001,Vente,168000,,,ALL DE LA CEDRAIE,0682,01000,01053,Bourg-en-Bresse,01,,,01053000CS0293,,,,,,,,,,,,,0,,,,,S,sols,,,86,5.239528,46.19077
2016-225,2016-01-29,000001,Vente,168000,,,ALL DE LA CEDRAIE,0682,01000,01053,Bourg-en-Bresse,01,,,01053000CS0295,,,,,,,,,,,,,0,,,,,S,sols,,,229,5.239854,46.191018
2016-225,2016-01-29,000001,Vente,168000,,,ALL DE LA CEDRAIE,0682,01000,01053,Bourg-en-Bresse,01,,,01053000CS0296,,,,,,,,,,,,,0,,,,,S,sols,,,170,5.240465,46.190991
2016-225,2016-01-29,000001,Vente,168000,9001,,ALL DE LA CEDRAIE,0682,01000,01053,Bourg-en-Bresse,01,,,01053000CS0297,,,,,,,,,,,,,0,4,Local industriel. commercial ou assimilé,,0,S,sols,,,21,5.240973,46.190873
2016-225,2016-01-29,000001,Vente,168000,,,ALL DE LA CEDRAIE,0682,01000,01053,Bourg-en-Bresse,01,,,01053000CS0298,,,,,,,,,,,,,0,,,,,S,sols,,,198,5.240361,46.190456
2016-226,2016-02-03,000001,Vente,13500,,,LA FORET,B016,01310,01140,Curtafond,01,,,011400000B0048,,,,,,,,,,,,,0,,,,,BS,taillis sous futaie,,,13009,5.129965,46.265514
2016-227,2016-02-03,000001,Vente,31700,,,LES FOUGES,B091,01190,01016,Arbigny,01,,,010160000B0188,,,,,,,,,,,,,0,,,,,BS,taillis sous futaie,,,13854,5.004481,46.473838
2016-227,2016-02-03,000001,Vente,31700,,,EN LA FOLIA,B087,01190,01016,Arbigny,01,,,010160000C0083,,,,,,,,,,,,,0,,,,,BP,peupleraies,,,13301,4.997636,46.464697
2016-227,2016-02-03,000001,Vente,31700,,,EN RACINE,B161,01190,01016,Arbigny,01,,,010160000C0230,,,,,,,,,,,,,0,,,,,BS,taillis sous futaie,,,7980,4.992438,46.464541
2016-227,2016-02-03,000001,Vente,31700,,,TAMBOURIN,B247,01190,01094,Chavannes-sur-Reyssouze,01,,,010940000A0592,,,,,,,,,,,,,0,,,,,BT,taillis simples,,,1796,4.991172,46.458382
2016-227,2016-02-03,000001,Vente,31700,,,EN GUIGONNET,B093,01190,01402,Sermoyer,01,,,01402000WI0212,,,,,,,,,,,,,0,,,,,BT,taillis simples,,,1710,4.995524,46.492507
2016-227,2016-02-03,000001,Vente,31700,,,TERRES COUVARD,B176,01190,01402,Sermoyer,01,,,01402000WK0094,,,,,,,,,,,,,0,,,,,T,terres,,,7447,4.995702,46.492144
2016-227,2016-02-03,000001,Vente,31700,,,LE MONT,B070,01560,01437,Vescours,01,,,014370000C0005,,,,,,,,,,,,,0,,,,,BS,taillis sous futaie,,,12170,5.023815,46.460383
2016-227,2016-02-03,000001,Vente,31700,,,LE MONT,B070,01560,01437,Vescours,01,,,014370000C0006,,,,,,,,,,,,,0,,,,,BS,taillis sous futaie,,,1668,5.024534,46.460509
2016-227,2016-02-03,000001,Vente,31700,,,LES PENDENNES,B079,01560,01437,Vescours,01,,,014370000C0511,,,,,,,,,,,,,0,,,,,BR,futaies résineuses,PIN,Pins,144300,5.017006,46.466103
2016-227,2016-02-03,000001,Vente,31700,,,LES PACCAUD,B078,01560,01437,Vescours,01,,,014370000C0613,,,,,,,,,,,,,0,,,,,BR,futaies résineuses,PIN,Pins,1713,5.015986,46.464931
2016-227,2016-02-03,000001,Vente,31700,,,BOIS DU SAULE,B025,01440,01451,Viriat,01,,,014510000C0427,,,,,,,,,,,,,0,,,,,BS,taillis sous futaie,,,6735,5.249908,46.260108
2016-228,2016-02-05,000002,Vente,105252,,,EN BIOLIERE,B006,01190,01284,Ozan,01,,,01284000ZE0511,,,,,,,,,,,,,0,,,,,AB,terrains a bâtir,,,4592,4.916655,46.385004
2016-228,2016-02-05,000002,Vente,105252,,,EN BIOLIERE,B006,01190,01284,Ozan,01,,,01284000ZE0531,,,,,,,,,,,,,0,,,,,E,eaux,FOSSE,Fosse,170,4.916307,46.385053
2016-228,2016-02-05,000002,Vente,105252,,,EN BIOLIERE,B006,01190,01284,Ozan,01,,,01284000ZE0554,,,,,,,,,,,,,0,,,,,T,terres,,,4459,4.91598,46.384998
2016-229,2016-02-05,000001,Vente,211500,9,,LOT DU MOLLET,A005,01190,01323,Reyssouze,01,,,01323000AP0138,,,,,,,,,,,,,0,1,Maison,136,5,S,sols,,,765,4.91977,46.436335
2016-230,2016-02-05,000001,Vente,272000,5169,,LE MOLLARD,B076,01340,01236,Marsonnas,01,,,01236000AI0590,,,,,,,,,,,,,0,1,Maison,166,5,S,sols,,,500,5.077238,46.344176
2016-230,2016-02-05,000001,Vente,272000,5169,,LE MOLLARD,B076,01340,01236,Marsonnas,01,,,01236000AI0590,,,,,,,,,,,,,0,1,Maison,166,5,AG,terrains d'agrément,JARD,Jardin d'agrément,1304,5.077238,46.344176
2016-231,2016-02-05,000001,Vente,4420,24,,RUE FRANCHE,0180,01190,01305,Pont-de-Vaux,01,,,01305000AK0518,,,11,,,,,,,,,,1,3,Dépendance,,0,,,,,,4.938159,46.431814
2016-232,2016-01-22,000001,Vente,164000,184,,RTE D ATTIGNAT,0001,01310,01301,Polliat,01,,,01301000AE0008,,,,,,,,,,,,,0,1,Maison,89,4,S,sols,,,950,5.131701,46.249606
2016-233,2016-02-04,000001,Vente,30000,,,TERRE NEYRON,B039,01380,01332,Saint-André-de-Bâgé,01,,,013320000A0386,,,,,,,,,,,,,0,,,,,P,prés,,,7010,4.916583,46.309036
2016-233,2016-02-04,000001,Vente,30000,,,TERRE NEYRON,B039,01380,01332,Saint-André-de-Bâgé,01,,,013320000A1556,,,,,,,,,,,,,0,,,,,P,prés,,,1711,4.916431,46.308485
2016-234,2016-01-29,000001,Vente,57000,,,LE BOURG,B004,01190,01305,Pont-de-Vaux,01,,,01305000AK0045,,,,,,,,,,,,,0,,,,,S,sols,,,27,4.938663,46.431086
2016-234,2016-01-29,000001,Vente,57000,38,,RUE FRANCHE,0180,01190,01305,Pont-de-Vaux,01,,,01305000AK0046,,,,,,,,,,,,,0,1,Maison,70,3,S,sols,,,110,4.938587,46.431048
2016-234,2016-01-29,000001,Vente,57000,38,,RUE FRANCHE,0180,01190,01305,Pont-de-Vaux,01,,,01305000AK0046,,,,,,,,,,,,,0,1,Maison,30,1,S,sols,,,110,4.938587,46.431048
2016-235,2016-01-26,000001,Vente,180020,5103,,LE BOURG,B011,01560,01437,Vescours,01,,,014370000C0686,,,,,,,,,,,,,0,1,Maison,121,5,S,sols,,,1660,5.026579,46.472454
2016-236,2016-02-04,000001,Vente,135000,5219,,MONNET,B179,01380,01025,Bâgé-Dommartin,01,01025,Bâgé-la-Ville,010250000A1690,,,,,,,,,,,,,0,1,Maison,89,4,S,sols,,,1070,4.930268,46.313117
2016-237,2016-02-01,000001,Vente,301000,32,,IMP DE LA CABORNE,0020,01380,01332,Saint-André-de-Bâgé,01,,,013320000A1596,,,,,,,,,,,,,0,1,Maison,130,5,S,sols,,,1021,4.913667,46.300357
2016-237,2016-02-01,000001,Vente,301000,,,LA CABORNE,B003,01380,01332,Saint-André-de-Bâgé,01,,,013320000A1597,,,,,,,,,,,,,0,,,,,T,terres,,,61,4.913397,46.30034
